name,route_name,distance,time_min,time_max,ascent,start_grid_ref,munros_climbed,start_lat,start_lon,rating,grade,bog_factor,route_page_link,time_median,calories_per_kg,number_of_munros
A' Bhuidheanach Bheag,Càrn na Caim and A'Bhuidheanach Bheag,19.0,5.0,6.0,824.0,NN639820,"['Càrn na Caim', 'A Bhuidheanach-bheag']",56.9089,-4.2366,3.0,4,3,https://www.walkhighlands.co.uk//cairngorms/carn-na-caim.shtml,5.5,26.150095602294456,2
A' Chailleach (Fannichs),An Teallach,20.0,9.0,10.0,1415.0,NH093879,"['Sgùrr Fiona', 'Bidein a Ghlas Thuill']",57.84,-5.215,4.01429,5,3,https://www.walkhighlands.co.uk//ullapool/anteallach.shtml,9.5,45.07146271510516,2
A' Chailleach (Fannichs),Sgùrr Breac & A' Chailleach: Western Fannichs (Walkhighlands),16.0,6.0,8.0,1127.0,NH163761,"['Sgùrr Breac', ""A' Chailleach""]",57.7374,-5.09,3.53333,4,4,https://www.walkhighlands.co.uk//ullapool/sgurrbreac.shtml,7.0,34.1986137667304,2
A' Chailleach (Monadhliath),Monadh Liath Munros: Càrn Dearg,24.5,8.0,10.0,946.0,NN693998,"['Càrn Dearg', ""A' Chailleach"", 'Càrn Sgulain']",57.0705,-4.1576,3.5,4,3,https://www.walkhighlands.co.uk//cairngorms/monadhliath.shtml,9.0,38.078871892925434,3
A' Chralaig,A' Chralaig and Mullach Fraoch-choire (Walkhighlands),13.0,6.0,8.0,1150.0,NH092121,"['A Chralaig', 'Mullach Fraoch-choire']",57.1596,-5.1647,4.0,4,3,https://www.walkhighlands.co.uk//kintail/Achralaig.shtml,7.0,34.46797323135755,2
A' Ghlas,A' Ghlas Bheinn and the Falls of Glomach (Walkhighlands),21.0,7.0,9.0,1196.0,NG961211,"[""A' Ghlas Bheinn""]",57.2348,-5.3809,4.0,4,3,https://www.walkhighlands.co.uk//kintail/Aghlasbheinn.shtml,8.0,38.006692160611856,1
A' Mhaighdean,Fisherfield 6,29.0,12.0,18.0,2254.0,NH065809,"[""A' Mhaighdean"", ""Beinn a' Chlaidheimh"", 'Mullach Coire Mhic Fhearchair', 'Beinn Tarsuinn', 'Corbett', 'Sgùrr Ban', 'Ruadh Stac Mòr ']",57.7768,-5.2545,4.5,5,4,https://www.walkhighlands.co.uk//ullapool/fisherfield-6.shtml,15.0,71.3972275334608,7
A' Mharconaich,A' Mharconaich and Geal Chàrn,11.5,4.0,6.0,731.0,NN627791,"[""A' Mharconaich"", 'Geal Chàrn']",56.8835,-4.2536,3.5,4,3,https://www.walkhighlands.co.uk//cairngorms/a-mharconaich.shtml,5.0,23.560946462715105,2
Am Basteir,Am Basteir (Walkhighlands),14.0,6.0,7.0,1175.0,NG484296,['Am Basteir'],57.2891,-6.1769,4.5,5,2,https://www.walkhighlands.co.uk//skye/ambasteir.shtml,6.5,33.260755258126196,1
Am Bodach,The Ring of Steall,16.0,9.0,12.0,1676.0,NN168691,"['An Gearanach', ""Stob Coire a' Chàirn"", 'Am Bodach', ""Sgùrr a'Mhaim""]",56.7777,-5.00034,5.0,5,2,https://www.walkhighlands.co.uk//fortwilliam/ringofsteall.shtml,10.5,51.12810707456979,4
Am Faochagach,Am Faochagach (Walkhighlands),14.0,5.0,6.0,700.0,NH278742,['Am Faochagach'],57.7248,-4.8943,2.91667,4,5,https://www.walkhighlands.co.uk//ullapool/amfaochagach.shtml,5.5,24.697896749521988,1
An Caisteal,An Caisteal and Beinn a'Chròin,14.0,5.5,7.0,1045.0,NN369239,"[""Beinn  a' Chròin"", 'An Caisteal']",56.379,-4.643,4.0,4,4,https://www.walkhighlands.co.uk//lochlomond/an-caisteal.shtml,6.25,30.988288718929255,2
An Coileachan,Sgùrr Mòr and the eastern Fannichs (Walkhighlands),24.75,9.0,11.0,1435.0,NH278742,"['An Coileachan', 'Beinn Liath Mhòr Fannaich', 'Meall Gorm', 'Sgùrr Mòr ']",57.7248,-4.8943,2.95,4,4,https://www.walkhighlands.co.uk//ullapool/fannichs.shtml,10.0,46.80568833652008,4
An Gearanach,The Ring of Steall,16.0,9.0,12.0,1676.0,NN168691,"['An Gearanach', ""Stob Coire a' Chàirn"", 'Am Bodach', ""Sgùrr a'Mhaim""]",56.7777,-5.00034,5.0,5,2,https://www.walkhighlands.co.uk//fortwilliam/ringofsteall.shtml,10.5,51.12810707456979,4
An Riabhachan,The Loch Mullardoch Munros (Walkhighlands),29.0,11.0,14.0,1826.0,NH218315,"['Sgùrr na Lapaich', 'Càrn nan Gobhar', 'An Riabhachan', 'An Socach']",57.3399,-4.9615,4.0,4,4,https://www.walkhighlands.co.uk//lochness/mullardoch-munros.shtml,12.5,58.884799235181646,4
An Sgarsoch,An Sgarsoch and Càrn an Fhidhleir (Walkhighlands),42.0,11.0,12.0,1059.0,NO063897,"['Càrn an Fhidhleir (Càrn Ealar)', 'An Sgarsoch']",56.9894,-3.5435,3.0,4,3,https://www.walkhighlands.co.uk//cairngorms/an-sgarsoch.shtml,11.5,46.90224665391969,2
An Socach (Affric),Sgùrr nan Ceathreamhnan group,20.0,9.0,11.0,1484.0,NH079202,"['Mullach nan Dheiragain', 'Sgùrr nan Ceathreamhnan', 'An Socach']",57.2322,-5.1834,4.0,4,2,https://www.walkhighlands.co.uk//lochness/Ceathreamhnan.shtml,10.0,47.379541108986615,3
An Socach (Braemar),An Socach from Glen Clunie (Walkhighlands),15.75,5.0,6.0,655.0,NO139832,['An Socach'],56.9313,-3.417,3.0,3,3,https://www.walkhighlands.co.uk//cairngorms/an-socach.shtml,5.5,24.17088910133843,1
An Socach (Mullardoch),The Loch Mullardoch Munros (Walkhighlands),29.0,11.0,14.0,1826.0,NH218315,"['Sgùrr na Lapaich', 'Càrn nan Gobhar', 'An Riabhachan', 'An Socach']",57.3399,-4.9615,4.0,4,4,https://www.walkhighlands.co.uk//lochness/mullardoch-munros.shtml,12.5,58.884799235181646,4
An Stùc,Meall Greigh,16.5,7.0,8.0,1230.0,NN677395,"['Meall Garbh', 'Meall Greigh', 'An Stùc']",56.5295,-4.15186,4.0,4,3,https://www.walkhighlands.co.uk//perthshire/meall-garbh.shtml,7.5,36.904875717017205,3
Aonach Air Chrith,South Glen Shiel Ridge: 7 Munros (Walkhighlands),26.75,9.0,11.0,1818.0,NH079117,"['Creag nan Dàmh', 'Druim Shionnach', ""Creag a' Mhaim"", 'Aonach Air Chrith', 'Sgùrr an Lochain', 'Maol Chinn-dearg', 'Sgùrr an Doire Leathain']",57.156,-5.17815,4.5,4,2,https://www.walkhighlands.co.uk//kintail/Glenshielridge.shtml,10.0,51.29110898661568,7
Aonach Beag (Alder),Aonach Beag: Four Munros from Culra (Walkhighlands),18.5,8.0,9.0,1110.0,NN522761,"['Cairn Dearg', 'Aonach Beag', 'Beinn Èibhinn', 'Geal Chàrn']",56.8535,-4.4238,4.0,4,3,https://www.walkhighlands.co.uk//cairngorms/aonach-beag.shtml,8.5,38.499521988527725,4
Aonach Beag (Nevis Range),Aonach Beag and Aonach Mòr from Glen Nevis (Walkhighlands),16.5,7.0,10.0,1376.0,NN168691,"['Aonach Beag', 'Aonach Mòr ']",56.7777,-5.00031,4.0,4,4,https://www.walkhighlands.co.uk//fortwilliam/aonachmor.shtml,8.5,41.61472275334608,2
Aonach Beag (Nevis Range),Aonach Mòr and Beag via the Gondola (Walkhighlands),9.5,4.5,5.5,860.0,NN187755,"['Aonach Beag', 'Aonach Mòr ']",56.8364,-4.9729,3.5,4,2,https://www.walkhighlands.co.uk//fortwilliam/aonachs-gondola.shtml,5.0,25.071701720841297,2
Aonach Meadhoin,Brothers Ridge - Sgùrr a Bhealaich Dheirg (Walkhighlands),10.0,6.0,8.0,1274.0,NH009135,"['Sàileag', 'Aonach Meadhoin', 'Sgùrr a Bhealaich Dheirg']",57.1696,-5.2945,4.0,4,2,https://www.walkhighlands.co.uk//kintail/Brothersridge.shtml,7.0,35.920172084130016,3
Aonach Mòr,Aonach Mòr and Beag via the Gondola (Walkhighlands),9.5,4.5,5.5,860.0,NN187755,"['Aonach Beag', 'Aonach Mòr ']",56.8364,-4.9729,3.5,4,2,https://www.walkhighlands.co.uk//fortwilliam/aonachs-gondola.shtml,5.0,25.071701720841297,2
Aonach Mòr,Aonach Beag and Aonach Mòr from Glen Nevis (Walkhighlands),16.5,7.0,10.0,1376.0,NN168691,"['Aonach Beag', 'Aonach Mòr ']",56.7777,-5.00031,4.0,4,4,https://www.walkhighlands.co.uk//fortwilliam/aonachmor.shtml,8.5,41.61472275334608,2
Beinn Achaladair,Beinn Achaladair and Beinn a'Chreachain (Walkhighlands),21.5,7.0,8.0,1266.0,NN313437,"[""Beinn a'Chreachain"", 'Beinn Achaladair']",56.5556,-4.7461,4.0,4,3,https://www.walkhighlands.co.uk//argyll/beinn-achaladair.shtml,7.5,37.32648183556405,2
Beinn Bheoil,Ben Alder and Beinn Bheòil from Culra (Walkhighlands),17.0,7.0,8.0,1021.0,NN522761,"['Beinn Bheòil', 'Ben Alder']",56.8535,-4.4238,4.5,4,3,https://www.walkhighlands.co.uk//cairngorms/ben-alder.shtml,7.5,34.45721797323136,2
Beinn Bhreac,Beinn a' Chaorainn & Beinn Bhreac (Walkhighlands),29.0,8.0,10.0,878.0,NO062898,"['Beinn Bhreac', ""Beinn a' Chaorainn""]",56.99,-3.5443,3.5,4,3,https://www.walkhighlands.co.uk//cairngorms/beinn-a-chaorainn.shtml,9.0,37.28250478011472,2
Beinn Bhrotain,Beinn Bhrotain and Monadh Mòr,29.0,9.0,11.0,1505.0,NN850985,"['Monadh Mòr ', 'Beinn Bhrotain']",57.0631,-3.897,3.5,4,3,https://www.walkhighlands.co.uk//cairngorms/beinn-bhrotain.shtml,10.0,47.625478011472275,2
Beinn Bhuidhe,Beinn Bhuidhe,21.5,7.0,8.0,955.0,NN193127,['Beinn Bhuidhe'],56.273,-4.9191,3.5,4,3,https://www.walkhighlands.co.uk//argyll/beinn-bhuidhe.shtml,7.5,33.68427342256214,1
Beinn Chabhair,Beinn Chabhair,13.0,5.0,6.5,948.0,NN318184,['Beinn Chabhair'],56.3285,-4.7218,3.5,4,3,https://www.walkhighlands.co.uk//lochlomond/beinn-chabhair.shtml,5.75,28.35229445506692,1
Beinn Dearg (Blair Atholl),Beinn Dearg from near Blair Atholl (Walkhighlands),29.0,7.0,9.0,990.0,NN874662,['Beinn Dearg'],56.7745,-3.84344,3.5,4,2,https://www.walkhighlands.co.uk//perthshire/beinn-dearg.shtml,8.0,35.59416826003824,1
Beinn Dearg (Ullapool),Beinn Dearg - the Four Munros circuit (Walkhighlands),27.0,9.0,11.0,1569.0,NH181852,"['Cona Mheall', 'Meall nan Ceapraichean', 'Eididh nan Clach Geala', 'Beinn Dearg']",57.8198,-5.0625,3.23256,4,2,https://www.walkhighlands.co.uk//ullapool/beinndearg.shtml,10.0,48.375,4
Beinn Dubhchraig,Ben Oss and Beinn Dubhchraig,17.0,7.0,8.0,1230.0,NN343291,"['Beinn Dubhchraig', 'Ben Oss']",56.425,-4.6868,3.5,4,4,https://www.walkhighlands.co.uk//argyll/ben-oss.shtml,7.5,36.904875717017205,2
Beinn Dòrain,Beinn Dòrain & Beinn an Dòthaidh,14.0,6.0,8.0,1228.0,NN297396,"['Beinn Dòrain', 'Beinn an Dòthaidh']",56.5169,-4.7692,4.0,4,3,https://www.walkhighlands.co.uk//argyll/beinn-dorain.shtml,7.0,35.381453154875715,2
Beinn Eunaich,Beinn a' Chochuill & Beinn Eunaich (Walkhighlands),13.5,5.5,6.5,1221.0,NN136287,"[""Beinn a' Chochuill"", 'Beinn Eunaich']",56.4145,-5.02331,3.5,4,2,https://www.walkhighlands.co.uk//argyll/beinn-eunaich.shtml,6.0,32.2994741873805,2
Beinn Fhada,Beinn Fhada,16.75,6.0,7.0,1234.0,NG961211,['Beinn Fhada'],57.2348,-5.3809,4.0,4,3,https://www.walkhighlands.co.uk//kintail/Beinnfhada.shtml,6.5,33.95172084130019,1
Beinn Fhionnlaidh,Beinn Fhionnlaidh (Walkhighlands),14.5,5.0,6.0,980.0,NN036488,['Beinn Fhionnlaidh'],56.5904,-5.20007,3.5,4,3,https://www.walkhighlands.co.uk//argyll/beinn-fhionnlaidh.shtml,5.5,27.977055449330784,1
Beinn Fhionnlaidh (Càrn Eige),Càrn Eige and Mam Sodhail (Walkhighlands),28.0,10.0,13.0,1727.0,NH216242,"['Beinn Fhionnlaidh', 'Càrn Eige (or Càrn Eighe)', 'Mam Sodhail']",57.2734,-4.9618,4.0,4,3,https://www.walkhighlands.co.uk//lochness/carn-eige.shtml,11.5,54.725382409177826,3
Beinn Ghlas,Ben Lawers and Beinn Ghlas (Walkhighlands),11.0,4.0,6.0,942.0,NN608377,"['Ben Lawers', 'Beinn Ghlas']",56.511,-4.26287,4.0,3,1,https://www.walkhighlands.co.uk//perthshire/ben-lawers.shtml,5.0,26.032026768642446,2
Beinn Heasgarnich,Creag Mhòr and Beinn Heasgarnich (Walkhighlands),25.75,9.0,11.0,1470.0,NN476368,"['Beinn Heasgarnich', 'Creag Mhor']",56.4991,-4.4759,3.5,4,4,https://www.walkhighlands.co.uk//perthshire/beinn-heasgarnich.shtml,10.0,47.21558317399618,2
Beinn Iutharn Mhòr,Beinn Iutharn Mhòr and Càrn Bhac,32.0,9.0,10.0,983.0,NO089892,"['Beinn Iutharn Mhor', 'Càrn Bhac']",56.9851,-3.5003,3.0,4,3,https://www.walkhighlands.co.uk//cairngorms/beinn-iutharn-mhor.shtml,9.5,40.01218929254302,2
Beinn Liath Mhòr,Beinn Liath Mhor,15.25,7.0,8.0,1054.0,NH004483,['Beinn Liath Mhor'],57.4817,-5.32935,4.0,4,2,https://www.walkhighlands.co.uk//torridon/Beinnliathmhor.shtml,7.5,34.84369024856596,1
Beinn Liath Mhòr Fannaich,Sgùrr Mòr and the eastern Fannichs (Walkhighlands),24.75,9.0,11.0,1435.0,NH278742,"['An Coileachan', 'Beinn Liath Mhòr Fannaich', 'Meall Gorm', 'Sgùrr Mòr ']",57.7248,-4.8943,2.95,4,4,https://www.walkhighlands.co.uk//ullapool/fannichs.shtml,10.0,46.80568833652008,4
Beinn Mhanach,Beinn Mhanach (Walkhighlands),23.5,6.5,7.5,920.0,NN328331,['Beinn Mhanach'],56.4607,-4.71466,3.0,4,3,https://www.walkhighlands.co.uk//argyll/beinn-mhanach.shtml,7.0,31.77437858508604,1
Beinn Mheadhoin,Beinn Mheadhoin via the Shelter Stone (Walkhighlands),19.0,8.0,9.0,1560.0,NH989059,['Beinn Mheadhoin'],57.134,-3.6712,4.5,4,3,https://www.walkhighlands.co.uk//cairngorms/beinn-mheadhoin.shtml,8.5,43.76959847036329,1
Beinn Mheadhoin,Beinn Mheadhoin & Derry Cairngorm,31.0,9.0,10.0,1200.0,NO062898,"['Beinn Mheadhoin', 'Derry Cairngorm']",56.99,-3.5443,4.0,4,2,https://www.walkhighlands.co.uk//cairngorms/mheadhoin-derry.shtml,9.5,42.55353728489484,2
Beinn Narnain,Beinn Narnain and Beinn Ìme (Walkhighlands),13.5,6.0,7.0,1325.0,NN294048,"['Beinn Ìme', 'Beinn Narnain']",56.206,-4.7507,4.0,4,3,https://www.walkhighlands.co.uk//lochlomond/beinn-ime.shtml,6.5,35.01744741873805,2
Beinn Sgritheall,Beinn Sgritheall (Walkhighlands),10.0,4.0,6.0,1095.0,NG843105,['Beinn Sgritheall'],57.1344,-5.5679,4.0,4,2,https://www.walkhighlands.co.uk//kintail/Beinnsgritheall.shtml,5.0,27.823852772466537,1
Beinn Sgulaird,Beinn Sgulaird (Walkhighlands),13.0,6.0,8.0,1240.0,NN008451,['Beinn Sgulaird'],56.5556,-5.2413,4.0,4,2,https://www.walkhighlands.co.uk//argyll/beinn-sgulaird.shtml,7.0,35.521988527724666,1
Beinn Tarsuinn,Fisherfield 6,29.0,12.0,18.0,2254.0,NH065809,"[""A' Mhaighdean"", ""Beinn a' Chlaidheimh"", 'Mullach Coire Mhic Fhearchair', 'Beinn Tarsuinn', 'Corbett', 'Sgùrr Ban', 'Ruadh Stac Mòr ']",57.7768,-5.2545,4.5,5,4,https://www.walkhighlands.co.uk//ullapool/fisherfield-6.shtml,15.0,71.3972275334608,7
Beinn Teallach,Beinn a' Chaorainn & Beinn Teallach (Walkhighlands),16.0,6.0,8.0,1172.0,NN377814,"[""Beinn a'Chaorainn"", 'Beinn Teallach']",56.8951,-4.6656,3.5,4,4,https://www.walkhighlands.co.uk//fortwilliam/beinnachaorainn.shtml,7.0,34.72562141491396,2
Beinn Tulaichean,Cruach Àrdrain and Beinn Tulaichean (Walkhighlands),12.5,6.0,7.0,1019.0,NN445185,"['Beinn Tulaichean', 'Cruach Àrdrain']",56.333,-4.5157,3.5,4,3,https://www.walkhighlands.co.uk//lochlomond/cruach-ardrain.shtml,6.5,31.433795411089868,2
Beinn Udlamain,Beinn Udlamain and Sgàirneach Mhòr (Walkhighlands),15.75,6.0,7.0,783.0,NN632755,"['Beinn Udlamain', 'Sgàirneach Mhòr']",56.8515,-4.2444,3.0,4,3,https://www.walkhighlands.co.uk//cairngorms/beinn-udlamain.shtml,6.5,28.669933078393882,2
Beinn a' Bhùird,Beinn a' Bhùird (Walkhighlands),28.0,7.0,9.0,959.0,NO116909,"[""Beinn a' Bhùird""]",57.0017,-3.4554,4.0,4,2,https://www.walkhighlands.co.uk//cairngorms/beinn-a-bhuird.shtml,8.0,35.231118546845124,1
Beinn a' Chaorainn (Cairngorms),Beinn a' Chaorainn & Beinn Bhreac (Walkhighlands),29.0,8.0,10.0,878.0,NO062898,"['Beinn Bhreac', ""Beinn a' Chaorainn""]",56.99,-3.5443,3.5,4,3,https://www.walkhighlands.co.uk//cairngorms/beinn-a-chaorainn.shtml,9.0,37.28250478011472,2
Beinn a' Chaorainn (Cairngorms),Lairig an Laoigh (Walkhighlands),29.0,8.0,10.0,696.0,NH987095,[],57.1652,-3.675,4.0,4,3,https://www.walkhighlands.co.uk//cairngorms/lairig-an-laoigh.shtml,9.0,35.151051625239006,0
Beinn a' Chaorainn (Glen Spean),Beinn a' Chaorainn & Beinn Teallach (Walkhighlands),16.0,6.0,8.0,1172.0,NN377814,"[""Beinn a'Chaorainn"", 'Beinn Teallach']",56.8951,-4.6656,3.5,4,4,https://www.walkhighlands.co.uk//fortwilliam/beinnachaorainn.shtml,7.0,34.72562141491396,2
Beinn a' Chlachair,Beinn a' Chlachair,26.0,8.0,10.0,1275.0,NN432830,"[""Beinn a' Chlachair"", 'Creag Pitridh', 'Geal Chàrn']",56.9122,-4.57556,3.5,4,3,https://www.walkhighlands.co.uk//fortwilliam/beinn-a-chlachair.shtml,9.0,41.93188336520076,3
Beinn a' Chlèibh,Ben Lui and Beinn a'Chlèibh (Walkhighlands),10.0,5.0,7.0,1078.0,NN239278,"[""Beinn a' Chlèibh"", 'Ben Lui']",56.4099,-4.85552,4.0,4,3,https://www.walkhighlands.co.uk//argyll/ben-lui.shtml,6.0,30.624760994263863,2
Beinn a' Chochuill,Beinn a' Chochuill & Beinn Eunaich (Walkhighlands),13.5,5.5,6.5,1221.0,NN136287,"[""Beinn a' Chochuill"", 'Beinn Eunaich']",56.4145,-5.02331,3.5,4,2,https://www.walkhighlands.co.uk//argyll/beinn-eunaich.shtml,6.0,32.2994741873805,2
Beinn a' Chreachain,Beinn Achaladair and Beinn a'Chreachain (Walkhighlands),21.5,7.0,8.0,1266.0,NN313437,"[""Beinn a'Chreachain"", 'Beinn Achaladair']",56.5556,-4.7461,4.0,4,3,https://www.walkhighlands.co.uk//argyll/beinn-achaladair.shtml,7.5,37.32648183556405,2
Beinn a' Chròin,An Caisteal and Beinn a'Chròin,14.0,5.5,7.0,1045.0,NN369239,"[""Beinn  a' Chròin"", 'An Caisteal']",56.379,-4.643,4.0,4,4,https://www.walkhighlands.co.uk//lochlomond/an-caisteal.shtml,6.25,30.988288718929255,2
Beinn an Dòthaidh,Beinn Dòrain & Beinn an Dòthaidh,14.0,6.0,8.0,1228.0,NN297396,"['Beinn Dòrain', 'Beinn an Dòthaidh']",56.5169,-4.7692,4.0,4,3,https://www.walkhighlands.co.uk//argyll/beinn-dorain.shtml,7.0,35.381453154875715,2
Beinn na Lap,Beinn na Lap,10.0,3.0,5.0,562.0,NN356664,['Beinn na Lap'],56.7604,-4.6907,3.5,3,3,https://www.walkhighlands.co.uk//fortwilliam/beinn-na-lap.shtml,4.0,18.581739961759084,1
Beinn nan Aighenan,Beinn nan Aighenan,15.75,7.0,9.0,1320.0,NN136468,['Beinn nan Aighenan'],56.5765,-5.0352,3.0,4,3,https://www.walkhighlands.co.uk//fortwilliam/beinn-nan-aighenan.shtml,8.0,39.458891013384324,1
Beinn Èibhinn,Aonach Beag: Four Munros from Culra (Walkhighlands),18.5,8.0,9.0,1110.0,NN522761,"['Cairn Dearg', 'Aonach Beag', 'Beinn Èibhinn', 'Geal Chàrn']",56.8535,-4.4238,4.0,4,3,https://www.walkhighlands.co.uk//cairngorms/aonach-beag.shtml,8.5,38.499521988527725,4
Beinn Ìme,Beinn Narnain and Beinn Ìme (Walkhighlands),13.5,6.0,7.0,1325.0,NN294048,"['Beinn Ìme', 'Beinn Narnain']",56.206,-4.7507,4.0,4,3,https://www.walkhighlands.co.uk//lochlomond/beinn-ime.shtml,6.5,35.01744741873805,2
Ben Alder,Ben Alder and Beinn Bheòil from Culra (Walkhighlands),17.0,7.0,8.0,1021.0,NN522761,"['Beinn Bheòil', 'Ben Alder']",56.8535,-4.4238,4.5,4,3,https://www.walkhighlands.co.uk//cairngorms/ben-alder.shtml,7.5,34.45721797323136,2
Ben Avon,Ben Avon via Gleann an-Slugain (Walkhighlands),33.5,8.0,10.0,1004.0,NO188912,['Ben Avon'],57.0057,-3.3381,4.5,4,2,https://www.walkhighlands.co.uk//cairngorms/ben-avon.shtml,9.0,38.75812619502868,1
Ben Challum,Ben Challum,11.5,5.0,7.0,910.0,NN355281,['Ben Challum'],56.4168,-4.6669,3.5,3,4,https://www.walkhighlands.co.uk//argyll/ben-challum.shtml,6.0,28.657265774378587,1
Ben Chonzie,Ben Chonzie via Glen Lednock (Walkhighlands),12.5,4.0,5.0,712.0,NN743273,['Ben Chonzie'],56.4209,-4.0394,3.5,3,2,https://www.walkhighlands.co.uk//perthshire/ben-chonzie.shtml,4.5,21.83843212237094,1
Ben Cruachan,Ben Cruachan and Stob Daimh (Walkhighlands),13.75,8.0,9.0,1376.0,NN080267,"['Ben Cruachan', 'Stob Daimh']",56.3937,-5.11198,4.5,4,2,https://www.walkhighlands.co.uk//argyll/ben-cruachan.shtml,8.5,41.61472275334608,2
Ben Hope,Ben Hope (Walkhighlands),7.5,4.0,6.0,946.0,NC462476,['Ben Hope'],58.3904,-4.6328,4.0,3,2,https://www.walkhighlands.co.uk//sutherland/ben-hope.shtml,5.0,26.07887189292543,1
Ben Klibreck,Ben Klibreck (Walkhighlands),14.25,5.0,7.0,930.0,NC532271,['Ben Klibreck'],58.2085,-4.4993,3.5,4,3,https://www.walkhighlands.co.uk//sutherland/ben-klibreck.shtml,6.0,28.891491395793498,1
Ben Lawers,Ben Lawers and Beinn Ghlas (Walkhighlands),11.0,4.0,6.0,942.0,NN608377,"['Ben Lawers', 'Beinn Ghlas']",56.511,-4.26287,4.0,3,1,https://www.walkhighlands.co.uk//perthshire/ben-lawers.shtml,5.0,26.032026768642446,2
Ben Lomond,Ben Lomond (Walkhighlands),12.0,4.5,5.5,990.0,NS359986,['Ben Lomond'],56.1525,-4.6431,4.5,3,3,https://www.walkhighlands.co.uk//lochlomond/ben-lomond.shtml,5.0,26.594168260038238,1
Ben Lui,Ben Lui and Beinn a'Chlèibh (Walkhighlands),10.0,5.0,7.0,1078.0,NN239278,"[""Beinn a' Chlèibh"", 'Ben Lui']",56.4099,-4.85552,4.0,4,3,https://www.walkhighlands.co.uk//argyll/ben-lui.shtml,6.0,30.624760994263863,2
Ben Macdui,Ben Macdui and Cairn Gorm (Walkhighlands),17.5,6.0,8.0,932.0,NH989059,"['Ben Macdui', 'Cairn Gorm']",57.134,-3.6712,4.0,4,3,https://www.walkhighlands.co.uk//cairngorms/macdui-cairngorm.shtml,7.0,31.914913957934992,2
Ben Macdui,Ben Macdui and Derry Cairngorm (Walkhighlands),29.0,9.0,11.0,1068.0,NO062898,"['Ben Macdui', 'Derry Cairngorm']",56.99,-3.5443,4.0,4,2,https://www.walkhighlands.co.uk//cairngorms/ben-macdui.shtml,10.0,42.507648183556405,2
Ben More,Ben More and Stob Binnein (Walkhighlands),12.0,6.0,8.0,1335.0,NN420263,"['Ben More', 'Stob Binnein']",56.4028,-4.5612,4.0,4,3,https://www.walkhighlands.co.uk//lochlomond/ben-more.shtml,7.0,36.63456022944551,2
Ben More (Mull),Ben More via A' Chioch and Beinn Fhada (Walkhighlands),14.5,8.0,9.0,1255.0,NM510371,"['Ben More (Mull)', 'Benn Fhada', 'Fiona']",56.461,-6.043,5.0,5,3,https://www.walkhighlands.co.uk//mull/ben-more-a-chioch.shtml,8.5,40.197657743785854,3
Ben More (Mull),Ben More (Mull) from Dhiseig (Walkhighlands),9.25,5.0,6.5,945.0,NM494359,['Ben More (Mull)'],56.4492,-6.0679,4.0,3,3,https://www.walkhighlands.co.uk//mull/ben-more-mull.shtml,5.75,28.317160611854682,1
Ben More Assynt,Ben More Assynt and Conival (Walkhighlands),17.25,8.5,10.0,1077.0,NC251216,"['Conival', ' ', 'Ben More Assynt']",58.1487,-4.9734,3.85714,4,3,https://www.walkhighlands.co.uk//ullapool/benmoreassynt.shtml,9.25,40.363049713193114,3
Ben Nevis,Ben Nevis by the Mountain Path (Walkhighlands),17.0,7.0,9.0,1352.0,NN122730,['Ben Nevis'],56.8108,-5.0771,3.5,3,1,https://www.walkhighlands.co.uk//fortwilliam/bennevis.shtml,8.0,39.83365200764818,1
Ben Nevis,Ben Nevis by the Càrn Mòr Dearg Arête (Walkhighlands),17.5,10.0,11.0,1506.0,NN144763,"['Càrn Mòr Dearg', 'Ben Nevis']",56.8419,-5.0432,5.0,5,3,https://www.walkhighlands.co.uk//fortwilliam/carnmordeargarete.shtml,10.5,49.13718929254302,2
Ben Oss,Ben Oss and Beinn Dubhchraig,17.0,7.0,8.0,1230.0,NN343291,"['Beinn Dubhchraig', 'Ben Oss']",56.425,-4.6868,3.5,4,4,https://www.walkhighlands.co.uk//argyll/ben-oss.shtml,7.5,36.904875717017205,2
Ben Starav,Ben Starav and Glas Bheinn Mhòr (Walkhighlands),16.0,8.0,9.0,1423.0,NN136468,"['Ben Starav', 'Glas Bheinn Mhòr']",56.5762,-5.03566,3.62069,4,3,https://www.walkhighlands.co.uk//fortwilliam/benstarav.shtml,8.5,42.16515296367113,2
Ben Vane,Ben Vane,11.0,4.5,6.5,930.0,NN322098,['Ben Vane'],56.2516,-4.70884,4.0,4,3,https://www.walkhighlands.co.uk//lochlomond/ben-vane.shtml,5.5,27.391491395793498,1
Ben Vorlich (Loch Earn),Ben Vorlich and Stùc a' Chròin (Walkhighlands),14.5,6.0,7.0,1145.0,NN633232,"['Ben Vorlich', ""Stùc a'Chròin""]",56.3813,-4.2158,4.0,4,3,https://www.walkhighlands.co.uk//perthshire/ben-vorlich.shtml,6.5,32.90941682600382,2
Ben Vorlich (Loch Lomond),Ben Vorlich via Loch Sloy (Walkhighlands),13.5,5.0,6.5,945.0,NN322098,['Ben Vorlich'],56.2516,-4.70884,4.0,4,2,https://www.walkhighlands.co.uk//lochlomond/ben-vorlich-lomond.shtml,5.75,28.317160611854682,1
Ben Wyvis,Ben Wyvis,14.0,4.5,5.5,935.0,NH410671,['Ben Wyvis'],57.6658,-4.6668,4.0,3,2,https://www.walkhighlands.co.uk//lochness/Benwyvis.shtml,5.0,25.950047801147228,1
Bidean nam Bian,Bidean nam Bian (Walkhighlands),11.0,7.0,9.0,1316.0,NN170569,"['Stob Coire Sgreamhach', 'Bidean nam Bian']",56.6677,-4.9865,3.90588,4,1,https://www.walkhighlands.co.uk//fortwilliam/bideannambian.shtml,8.0,39.412045889101336,2
Bidein a' Choire Sheasgaich,Bidein a' Choire Sheasgaich and Lurg Mhòr (Walkhighlands),38.0,16.0,19.0,1530.0,NG924387,"[""Bidein a' Choire Sheasgaich"", 'Lurg Mhor']",57.3915,-5.45534,4.0,4,3,https://www.walkhighlands.co.uk//torridon/bideinachoiresheasgaich.shtml,17.5,70.41826003824092,2
Bidein a' Ghlas Thuill (An Teallach),An Teallach,20.0,9.0,10.0,1415.0,NH093879,"['Sgùrr Fiona', 'Bidein a Ghlas Thuill']",57.84,-5.215,4.01429,5,3,https://www.walkhighlands.co.uk//ullapool/anteallach.shtml,9.5,45.07146271510516,2
Binnein Beag,Sgùrr Èilde Mòr and Binnein Beag,20.0,9.0,11.0,1582.0,NN188623,"['Sgùrr Èilde Mòr ', 'Binnein Beag']",56.7168,-4.9628,3.71429,4,3,https://www.walkhighlands.co.uk//fortwilliam/sgurreildemor.shtml,10.0,48.52724665391969,2
Binnein Mòr,Binnein Mòr and Na Gruagaichean,14.0,7.0,9.0,1336.0,NN187622,"['Binnein Mòr ', 'Na Gruagaichean']",56.7169,-4.96308,3.92308,4,2,https://www.walkhighlands.co.uk//fortwilliam/binneinmor.shtml,8.0,39.64627151051625,2
Blà Bheinn,Blà Bheinn (Blaven) (Walkhighlands),8.0,5.0,6.0,990.0,NG560215,['Blà Bheinn'],57.2203,-6.0429,5.0,4,1,https://www.walkhighlands.co.uk//skye/blabheinn.shtml,5.5,28.094168260038238,1
Braeriach,Cairn Toul - Braeriach traverse (Walkhighlands),36.0,13.0,16.0,1820.0,NH984073,"[""The Devil's Point"", 'Braeriach', 'Cairn Toul', 'Sgòr an Lochain Uaine']",57.1462,-3.6793,5.0,5,3,https://www.walkhighlands.co.uk//cairngorms/cairn-toul.shtml,14.5,64.81453154875717,4
Braeriach,Braeriach,26.0,8.0,10.0,1217.0,NH915087,['Braeriach'],57.1561,-3.7943,5.0,4,2,https://www.walkhighlands.co.uk//cairngorms/braeriach.shtml,9.0,41.252629063097515,1
Broad Cairn,White Mounth Munros,29.0,9.0,11.0,1228.0,NO309851,"[""Càrn a' Choire Bhòidheach"", 'Lochnagar', 'Cairn Bannoch', 'Broad Cairn', 'Càrn an t-Sagairt Mòr ']",56.9525,-3.1364,4.5,4,2,https://www.walkhighlands.co.uk//cairngorms/white-mounth.shtml,10.0,44.381453154875715,5
Broad Cairn,Creag an Dubh Loch and Broad Cairn,23.0,7.0,8.0,813.0,NO309851,['Broad Cairn'],56.9523,-3.1362,4.0,4,3,https://www.walkhighlands.co.uk//cairngorms/creag-an-dubh-loch.shtml,7.5,32.02127151051625,1
Bruach na Frìthe,Bruach na Frithe (Walkhighlands),13.75,5.0,7.0,947.0,NG484296,['Bruach na Frithe'],57.2888,-6.1842,4.5,4,3,https://www.walkhighlands.co.uk//skye/bruachnafrithe.shtml,6.0,29.090583173996176,1
Bràigh Coire Chruinn,Beinn a' Ghlò (Walkhighlands),22.0,8.0,10.0,1239.0,NN905671,"['Càrn nan Gabhar', 'Càrn Liath', 'Braigh Coire Chruinn-bhalgain']",56.7826,-3.7926,4.0,4,2,https://www.walkhighlands.co.uk//perthshire/beinn-a-ghlo.shtml,9.0,41.51027724665392,3
Bynack More,Bynack More from Glenmore (Walkhighlands),22.5,6.5,7.5,756.0,NH983088,['Bynack More'],57.1591,-3.6816,4.0,4,2,https://www.walkhighlands.co.uk//cairngorms/bynackmore.shtml,7.0,29.853728489483746,1
Cairn Bannoch,White Mounth Munros,29.0,9.0,11.0,1228.0,NO309851,"[""Càrn a' Choire Bhòidheach"", 'Lochnagar', 'Cairn Bannoch', 'Broad Cairn', 'Càrn an t-Sagairt Mòr ']",56.9525,-3.1364,4.5,4,2,https://www.walkhighlands.co.uk//cairngorms/white-mounth.shtml,10.0,44.381453154875715,5
Cairn Gorm,Cairn Gorm and the northern corries (Walkhighlands),11.0,5.0,6.0,775.0,NH989059,['Cairn Gorm'],57.134,-3.6712,4.5,4,2,https://www.walkhighlands.co.uk//cairngorms/cairngorm.shtml,5.5,25.576242829827915,1
Cairn Gorm,Ben Macdui and Cairn Gorm (Walkhighlands),17.5,6.0,8.0,932.0,NH989059,"['Ben Macdui', 'Cairn Gorm']",57.134,-3.6712,4.0,4,3,https://www.walkhighlands.co.uk//cairngorms/macdui-cairngorm.shtml,7.0,31.914913957934992,2
Cairn Toul,Cairn Toul - Braeriach traverse (Walkhighlands),36.0,13.0,16.0,1820.0,NH984073,"[""The Devil's Point"", 'Braeriach', 'Cairn Toul', 'Sgòr an Lochain Uaine']",57.1462,-3.6793,5.0,5,3,https://www.walkhighlands.co.uk//cairngorms/cairn-toul.shtml,14.5,64.81453154875717,4
Cairn of Claise,Glas Maol Munros circuit,19.25,6.5,7.5,891.0,NO147799,"['Glas Maol', 'Cairn of Claise', 'Càrn an Tuirc', 'Creag Leacach']",56.9033,-3.4008,3.5,4,3,https://www.walkhighlands.co.uk//cairngorms/glas-maol.shtml,7.0,31.434751434034418,4
Chno Dearg,Chno Dearg and Stob Coire Sgriodain (Walkhighlands),13.5,6.0,7.0,915.0,NN350782,"['Chno Dearg', 'Stob Coire Sgriodain']",56.8655,-4.7085,4.0,4,4,https://www.walkhighlands.co.uk//fortwilliam/chnodearg.shtml,6.5,30.215822179732314,2
Ciste Dhubh,Ciste Dhubh and Am Bathach,12.5,5.0,7.0,1040.0,NH087122,"['Corbett', 'Ciste Dhubh', 'Am Bathach']",57.1596,-5.1647,4.0,4,3,https://www.walkhighlands.co.uk//kintail/Cistedhubh.shtml,6.0,30.179732313575524,3
Cona' Mheall,Beinn Dearg - the Four Munros circuit (Walkhighlands),27.0,9.0,11.0,1569.0,NH181852,"['Cona Mheall', 'Meall nan Ceapraichean', 'Eididh nan Clach Geala', 'Beinn Dearg']",57.8198,-5.0625,3.23256,4,2,https://www.walkhighlands.co.uk//ullapool/beinndearg.shtml,10.0,48.375,4
Conival,Ben More Assynt and Conival (Walkhighlands),17.25,8.5,10.0,1077.0,NC251216,"['Conival', ' ', 'Ben More Assynt']",58.1487,-4.9734,3.85714,4,3,https://www.walkhighlands.co.uk//ullapool/benmoreassynt.shtml,9.25,40.363049713193114,3
Creag Leacach,Monega Hill and Glas Maol round from Glen Isla (Walkhighlands),20.75,7.0,7.5,1135.0,NO192698,"['Corbett', 'Glas Maol', 'Creag Leacach', 'Monamenach']",56.8128,-3.32404,4.0,4,2,https://www.walkhighlands.co.uk//angus/monega-glas-maol.shtml,7.25,35.04230401529637,4
Creag Leacach,Glas Maol Munros circuit,19.25,6.5,7.5,891.0,NO147799,"['Glas Maol', 'Cairn of Claise', 'Càrn an Tuirc', 'Creag Leacach']",56.9033,-3.4008,3.5,4,3,https://www.walkhighlands.co.uk//cairngorms/glas-maol.shtml,7.0,31.434751434034418,4
Creag Meagaidh,Creag Meagaidh circuit (Walkhighlands),21.0,8.0,10.0,1080.0,NN482872,"['Creag Meagaidh', 'Càrn Liath', 'Stob Poite Coire Àrdair']",56.9521,-4.49592,4.5,4,3,https://www.walkhighlands.co.uk//fortwilliam/creagmeagaidh.shtml,9.0,39.64818355640536,3
Creag Mhòr (Glen Lochay),Creag Mhòr and Beinn Heasgarnich (Walkhighlands),25.75,9.0,11.0,1470.0,NN476368,"['Beinn Heasgarnich', 'Creag Mhor']",56.4991,-4.4759,3.5,4,4,https://www.walkhighlands.co.uk//perthshire/beinn-heasgarnich.shtml,10.0,47.21558317399618,2
Creag Mhòr (Meall na Aighean),Càrn Gorm,19.5,7.0,8.0,1330.0,NN655478,"['Càrn Mairg', 'Creag Mhòr', 'Meall Garbh', 'Càrn Gorm']",56.6029,-4.192,4.0,4,2,https://www.walkhighlands.co.uk//perthshire/carn-mairg.shtml,7.5,38.07600382409178,4
Creag Pitridh,Beinn a' Chlachair,26.0,8.0,10.0,1275.0,NN432830,"[""Beinn a' Chlachair"", 'Creag Pitridh', 'Geal Chàrn']",56.9122,-4.57556,3.5,4,3,https://www.walkhighlands.co.uk//fortwilliam/beinn-a-chlachair.shtml,9.0,41.93188336520076,3
Creag a'Mhàim,South Glen Shiel Ridge: 7 Munros (Walkhighlands),26.75,9.0,11.0,1818.0,NH079117,"['Creag nan Dàmh', 'Druim Shionnach', ""Creag a' Mhaim"", 'Aonach Air Chrith', 'Sgùrr an Lochain', 'Maol Chinn-dearg', 'Sgùrr an Doire Leathain']",57.156,-5.17815,4.5,4,2,https://www.walkhighlands.co.uk//kintail/Glenshielridge.shtml,10.0,51.29110898661568,7
Creag nan Dàmh,South Glen Shiel Ridge: 7 Munros (Walkhighlands),26.75,9.0,11.0,1818.0,NH079117,"['Creag nan Dàmh', 'Druim Shionnach', ""Creag a' Mhaim"", 'Aonach Air Chrith', 'Sgùrr an Lochain', 'Maol Chinn-dearg', 'Sgùrr an Doire Leathain']",57.156,-5.17815,4.5,4,2,https://www.walkhighlands.co.uk//kintail/Glenshielridge.shtml,10.0,51.29110898661568,7
Creise,Creise and Meall a'Bhùiridh from the Ski centre (Walkhighlands),10.5,5.0,7.0,1093.0,NN266525,"['Creise', ""Meall a'Bhùiridh""]",56.6324,-4.8279,4.0,4,3,https://www.walkhighlands.co.uk//fortwilliam/creise.shtml,6.0,30.800430210325047,2
Cruach Àrdrain,Cruach Àrdrain and Beinn Tulaichean (Walkhighlands),12.5,6.0,7.0,1019.0,NN445185,"['Beinn Tulaichean', 'Cruach Àrdrain']",56.333,-4.5157,3.5,4,3,https://www.walkhighlands.co.uk//lochlomond/cruach-ardrain.shtml,6.5,31.433795411089868,2
Càrn Aosda,The Cairnwell Munros (Walkhighlands),13.0,5.0,6.0,595.0,NO138781,"['Càrn Aosda', ""Càrn a' Ghèoidh"", 'The Cairnwell']",56.8868,-3.4149,3.0,3,3,https://www.walkhighlands.co.uk//cairngorms/cairnwell.shtml,5.5,23.468212237093688,3
Càrn Bhac,Beinn Iutharn Mhòr and Càrn Bhac,32.0,9.0,10.0,983.0,NO089892,"['Beinn Iutharn Mhor', 'Càrn Bhac']",56.9851,-3.5003,3.0,4,3,https://www.walkhighlands.co.uk//cairngorms/beinn-iutharn-mhor.shtml,9.5,40.01218929254302,2
Càrn Dearg (Corrour),Sgòr Gaibhre and Càrn Dearg from Corrour (Walkhighlands),21.75,7.0,8.0,973.0,NN356664,"['Sgòr Gaibhre', 'Càrn Dearg (Corrour)']",56.7604,-4.6907,4.0,4,3,https://www.walkhighlands.co.uk//fortwilliam/sgor-gaibhre.shtml,7.5,33.89507648183557,2
Càrn Dearg (Loch Pattack),Aonach Beag: Four Munros from Culra (Walkhighlands),18.5,8.0,9.0,1110.0,NN522761,"['Cairn Dearg', 'Aonach Beag', 'Beinn Èibhinn', 'Geal Chàrn']",56.8535,-4.4238,4.0,4,3,https://www.walkhighlands.co.uk//cairngorms/aonach-beag.shtml,8.5,38.499521988527725,4
Càrn Dearg (Monadhliath),Monadh Liath Munros: Càrn Dearg,24.5,8.0,10.0,946.0,NN693998,"['Càrn Dearg', ""A' Chailleach"", 'Càrn Sgulain']",57.0705,-4.1576,3.5,4,3,https://www.walkhighlands.co.uk//cairngorms/monadhliath.shtml,9.0,38.078871892925434,3
Càrn Eige,Càrn Eige and Mam Sodhail (Walkhighlands),28.0,10.0,13.0,1727.0,NH216242,"['Beinn Fhionnlaidh', 'Càrn Eige (or Càrn Eighe)', 'Mam Sodhail']",57.2734,-4.9618,4.0,4,3,https://www.walkhighlands.co.uk//lochness/carn-eige.shtml,11.5,54.725382409177826,3
Càrn Ghluasaid,Sgùrr nan Conbhairean round (Walkhighlands),17.5,7.0,8.0,1260.0,NH144103,"['Càrn Ghluasaid', 'Sàil Chaorainn', 'Sgùrr nan Conbhairean']",57.1461,-5.0682,4.0,4,3,https://www.walkhighlands.co.uk//kintail/sgurrnanconbhairean.shtml,7.5,37.25621414913958,3
Càrn Gorm,Càrn Gorm,19.5,7.0,8.0,1330.0,NN655478,"['Càrn Mairg', 'Creag Mhòr', 'Meall Garbh', 'Càrn Gorm']",56.6029,-4.192,4.0,4,2,https://www.walkhighlands.co.uk//perthshire/carn-mairg.shtml,7.5,38.07600382409178,4
Càrn Liath (Beinn a' Ghlò),Beinn a' Ghlò (Walkhighlands),22.0,8.0,10.0,1239.0,NN905671,"['Càrn nan Gabhar', 'Càrn Liath', 'Braigh Coire Chruinn-bhalgain']",56.7826,-3.7926,4.0,4,2,https://www.walkhighlands.co.uk//perthshire/beinn-a-ghlo.shtml,9.0,41.51027724665392,3
Càrn Liath (Creag Meagaidh),Creag Meagaidh circuit (Walkhighlands),21.0,8.0,10.0,1080.0,NN482872,"['Creag Meagaidh', 'Càrn Liath', 'Stob Poite Coire Àrdair']",56.9521,-4.49592,4.5,4,3,https://www.walkhighlands.co.uk//fortwilliam/creagmeagaidh.shtml,9.0,39.64818355640536,3
Càrn Mairg,Càrn Gorm,19.5,7.0,8.0,1330.0,NN655478,"['Càrn Mairg', 'Creag Mhòr', 'Meall Garbh', 'Càrn Gorm']",56.6029,-4.192,4.0,4,2,https://www.walkhighlands.co.uk//perthshire/carn-mairg.shtml,7.5,38.07600382409178,4
Càrn Mòr Dearg,Ben Nevis by the Càrn Mòr Dearg Arête (Walkhighlands),17.5,10.0,11.0,1506.0,NN144763,"['Càrn Mòr Dearg', 'Ben Nevis']",56.8419,-5.0432,5.0,5,3,https://www.walkhighlands.co.uk//fortwilliam/carnmordeargarete.shtml,10.5,49.13718929254302,2
Càrn Sgulain,Monadh Liath Munros: Càrn Dearg,24.5,8.0,10.0,946.0,NN693998,"['Càrn Dearg', ""A' Chailleach"", 'Càrn Sgulain']",57.0705,-4.1576,3.5,4,3,https://www.walkhighlands.co.uk//cairngorms/monadhliath.shtml,9.0,38.078871892925434,3
Càrn a' Chlamain,Càrn a'Chlamain (Walkhighlands),26.0,7.0,9.0,930.0,NN874662,['Càrn a Chlamain'],56.7745,-3.84325,3.5,4,2,https://www.walkhighlands.co.uk//perthshire/carn-a-chlamain.shtml,8.0,34.891491395793494,1
Càrn a' Choire Bhòidheach,White Mounth Munros,29.0,9.0,11.0,1228.0,NO309851,"[""Càrn a' Choire Bhòidheach"", 'Lochnagar', 'Cairn Bannoch', 'Broad Cairn', 'Càrn an t-Sagairt Mòr ']",56.9525,-3.1364,4.5,4,2,https://www.walkhighlands.co.uk//cairngorms/white-mounth.shtml,10.0,44.381453154875715,5
Càrn a' Ghèoidh,The Cairnwell Munros (Walkhighlands),13.0,5.0,6.0,595.0,NO138781,"['Càrn Aosda', ""Càrn a' Ghèoidh"", 'The Cairnwell']",56.8868,-3.4149,3.0,3,3,https://www.walkhighlands.co.uk//cairngorms/cairnwell.shtml,5.5,23.468212237093688,3
Càrn a' Mhàim,Càrn a'Mhaim from the Linn of Dee (Walkhighlands),22.5,6.0,7.0,648.0,NO062898,"[""Càrn a'Mhaim""]",56.99,-3.5443,3.5,4,2,https://www.walkhighlands.co.uk//cairngorms/carn-a-mhaim.shtml,6.5,27.088910133843214,1
Càrn a' Mhàim,Lairig Ghru (Walkhighlands),30.5,8.0,10.0,810.0,NH914106,[],57.1741,-3.797,5.0,4,3,https://www.walkhighlands.co.uk//cairngorms/lairig-ghru.shtml,9.0,36.486137667304014,0
Càrn an Fhìdhleir (Càrn Ealar),An Sgarsoch and Càrn an Fhidhleir (Walkhighlands),42.0,11.0,12.0,1059.0,NO063897,"['Càrn an Fhidhleir (Càrn Ealar)', 'An Sgarsoch']",56.9894,-3.5435,3.0,4,3,https://www.walkhighlands.co.uk//cairngorms/an-sgarsoch.shtml,11.5,46.90224665391969,2
Càrn an Rìgh,Glas Tulaichean & Càrn an Rìgh,27.0,8.0,10.0,1085.0,NO105701,"['Glas Tulaichean', 'Càrn an Rìgh']",56.8141,-3.4672,4.0,4,3,https://www.walkhighlands.co.uk//perthshire/glas-tulaichean.shtml,9.0,39.706739961759084,2
Càrn an Tuirc,Glas Maol Munros circuit,19.25,6.5,7.5,891.0,NO147799,"['Glas Maol', 'Cairn of Claise', 'Càrn an Tuirc', 'Creag Leacach']",56.9033,-3.4008,3.5,4,3,https://www.walkhighlands.co.uk//cairngorms/glas-maol.shtml,7.0,31.434751434034418,4
Càrn an t,White Mounth Munros,29.0,9.0,11.0,1228.0,NO309851,"[""Càrn a' Choire Bhòidheach"", 'Lochnagar', 'Cairn Bannoch', 'Broad Cairn', 'Càrn an t-Sagairt Mòr ']",56.9525,-3.1364,4.5,4,2,https://www.walkhighlands.co.uk//cairngorms/white-mounth.shtml,10.0,44.381453154875715,5
Càrn na Caim,Càrn na Caim and A'Bhuidheanach Bheag,19.0,5.0,6.0,824.0,NN639820,"['Càrn na Caim', 'A Bhuidheanach-bheag']",56.9089,-4.2366,3.0,4,3,https://www.walkhighlands.co.uk//cairngorms/carn-na-caim.shtml,5.5,26.150095602294456,2
Càrn nan Gabhar,Beinn a' Ghlò (Walkhighlands),22.0,8.0,10.0,1239.0,NN905671,"['Càrn nan Gabhar', 'Càrn Liath', 'Braigh Coire Chruinn-bhalgain']",56.7826,-3.7926,4.0,4,2,https://www.walkhighlands.co.uk//perthshire/beinn-a-ghlo.shtml,9.0,41.51027724665392,3
Càrn nan Gobhar (Loch Mullardoch),The Loch Mullardoch Munros (Walkhighlands),29.0,11.0,14.0,1826.0,NH218315,"['Sgùrr na Lapaich', 'Càrn nan Gobhar', 'An Riabhachan', 'An Socach']",57.3399,-4.9615,4.0,4,4,https://www.walkhighlands.co.uk//lochness/mullardoch-munros.shtml,12.5,58.884799235181646,4
Càrn nan Gobhar (Strathfarrar),Glen Strathfarrar Munros circuit (Walkhighlands),25.0,7.0,10.0,1567.0,NH283386,"['Càrn nan Gobhar', 'Sgùrr Fhuar-thuill', 'Sgùrr na Ruaidhe', ""Sgùrr a' Choire Ghlais""]",57.4056,-4.8591,4.0,4,3,https://www.walkhighlands.co.uk//lochness/strathfarrar-munros.shtml,8.5,43.85157743785851,4
Derry Cairngorm,Ben Macdui and Derry Cairngorm (Walkhighlands),29.0,9.0,11.0,1068.0,NO062898,"['Ben Macdui', 'Derry Cairngorm']",56.99,-3.5443,4.0,4,2,https://www.walkhighlands.co.uk//cairngorms/ben-macdui.shtml,10.0,42.507648183556405,2
Derry Cairngorm,Beinn Mheadhoin & Derry Cairngorm,31.0,9.0,10.0,1200.0,NO062898,"['Beinn Mheadhoin', 'Derry Cairngorm']",56.99,-3.5443,4.0,4,2,https://www.walkhighlands.co.uk//cairngorms/mheadhoin-derry.shtml,9.5,42.55353728489484,2
Driesh,Mayar and Driesh,14.5,4.5,5.5,835.0,NO284760,"['Mayar', 'Driesh']",56.8704,-3.17584,4.0,3,3,https://www.walkhighlands.co.uk//angus/mayar-driesh.shtml,5.0,24.778919694072655,2
Druim Shionnach,South Glen Shiel Ridge: 7 Munros (Walkhighlands),26.75,9.0,11.0,1818.0,NH079117,"['Creag nan Dàmh', 'Druim Shionnach', ""Creag a' Mhaim"", 'Aonach Air Chrith', 'Sgùrr an Lochain', 'Maol Chinn-dearg', 'Sgùrr an Doire Leathain']",57.156,-5.17815,4.5,4,2,https://www.walkhighlands.co.uk//kintail/Glenshielridge.shtml,10.0,51.29110898661568,7
Eididh nan Clach Geala,Beinn Dearg - the Four Munros circuit (Walkhighlands),27.0,9.0,11.0,1569.0,NH181852,"['Cona Mheall', 'Meall nan Ceapraichean', 'Eididh nan Clach Geala', 'Beinn Dearg']",57.8198,-5.0625,3.23256,4,2,https://www.walkhighlands.co.uk//ullapool/beinndearg.shtml,10.0,48.375,4
Fionn Bheinn,Fionn Bheinn,12.0,5.0,6.0,807.0,NH164586,['Fionn Bheinn'],57.5793,-5.0734,3.5,3,4,https://www.walkhighlands.co.uk//torridon/Fionnbheinn.shtml,5.5,25.951003824091778,1
Gairich,Gairich,15.5,5.0,7.0,850.0,NH068023,['Gairich'],57.0719,-5.1877,3.69231,4,3,https://www.walkhighlands.co.uk//fortwilliam/gairich.shtml,6.0,27.954588910133843,1
Garbh Chioch Mhòr,Sgùrr na Cìche: 3 Munros from Loch Arkaig (Walkhighlands),26.0,10.0,12.0,1523.0,NM988916,"['Sgùrr nan Coireachan', 'Garbh Chioch Mhor', 'Sgùrr na Cìche']",56.9719,-5.3123,3.57895,4,4,https://www.walkhighlands.co.uk//fortwilliam/sgurrnaciche.shtml,11.0,50.8362810707457,3
Geal,A' Mharconaich and Geal Chàrn,11.5,4.0,6.0,731.0,NN627791,"[""A' Mharconaich"", 'Geal Chàrn']",56.8835,-4.2536,3.5,4,3,https://www.walkhighlands.co.uk//cairngorms/a-mharconaich.shtml,5.0,23.560946462715105,2
Geal,Aonach Beag: Four Munros from Culra (Walkhighlands),18.5,8.0,9.0,1110.0,NN522761,"['Cairn Dearg', 'Aonach Beag', 'Beinn Èibhinn', 'Geal Chàrn']",56.8535,-4.4238,4.0,4,3,https://www.walkhighlands.co.uk//cairngorms/aonach-beag.shtml,8.5,38.499521988527725,4
Geal Chàrn (Monadhliath),Geal Chàrn,12.5,5.0,6.0,625.0,NN521948,['Geal Chàrn'],57.0199,-4.4359,3.0,3,4,https://www.walkhighlands.co.uk//cairngorms/geal-charn.shtml,5.5,23.81955066921606,1
Geal chàrn (Laggan),Beinn a' Chlachair,26.0,8.0,10.0,1275.0,NN432830,"[""Beinn a' Chlachair"", 'Creag Pitridh', 'Geal Chàrn']",56.9122,-4.57556,3.5,4,3,https://www.walkhighlands.co.uk//fortwilliam/beinn-a-chlachair.shtml,9.0,41.93188336520076,3
Glas Bheinn Mhòr,Ben Starav and Glas Bheinn Mhòr (Walkhighlands),16.0,8.0,9.0,1423.0,NN136468,"['Ben Starav', 'Glas Bheinn Mhòr']",56.5762,-5.03566,3.62069,4,3,https://www.walkhighlands.co.uk//fortwilliam/benstarav.shtml,8.5,42.16515296367113,2
Glas Maol,Glas Maol Munros circuit,19.25,6.5,7.5,891.0,NO147799,"['Glas Maol', 'Cairn of Claise', 'Càrn an Tuirc', 'Creag Leacach']",56.9033,-3.4008,3.5,4,3,https://www.walkhighlands.co.uk//cairngorms/glas-maol.shtml,7.0,31.434751434034418,4
Glas Maol,Monega Hill and Glas Maol round from Glen Isla (Walkhighlands),20.75,7.0,7.5,1135.0,NO192698,"['Corbett', 'Glas Maol', 'Creag Leacach', 'Monamenach']",56.8128,-3.32404,4.0,4,2,https://www.walkhighlands.co.uk//angus/monega-glas-maol.shtml,7.25,35.04230401529637,4
Glas Tulaichean,Glas Tulaichean & Càrn an Rìgh,27.0,8.0,10.0,1085.0,NO105701,"['Glas Tulaichean', 'Càrn an Rìgh']",56.8141,-3.4672,4.0,4,3,https://www.walkhighlands.co.uk//perthshire/glas-tulaichean.shtml,9.0,39.706739961759084,2
Gleouraich,Gleouraich and Spidean Mialach (Walkhighlands),12.0,5.0,7.0,1130.0,NH029029,"['Gleouraich', 'Spidean Mialach']",57.0757,-5.2532,3.61905,4,3,https://www.walkhighlands.co.uk//fortwilliam/spideanmialach.shtml,6.0,31.23374760994264,2
Gulvain,Gulvain,21.0,7.0,9.0,1228.0,NM960794,['Gulvain'],56.8597,-5.349,3.46667,4,3,https://www.walkhighlands.co.uk//fortwilliam/gulvain.shtml,8.0,38.381453154875715,1
Inaccessible Pinnacle,Sgùrr Dearg and the In Pinn (Walkhighlands),8.0,6.0,8.0,1065.0,NG411216,['Inaccessible Pinnacle'],57.212,-6.2884,4.5,5,2,https://www.walkhighlands.co.uk//skye/innpinn.shtml,7.0,33.47251434034417,1
Ladhar Bheinn,Ladhar Bheinn from Inverie,22.5,9.0,12.0,1399.0,NG765002,['Ladhar Bheinn'],57.0386,-5.6854,5.0,5,2,https://www.walkhighlands.co.uk//fortwilliam/ladhar-bheinn.shtml,10.5,47.88408221797323,1
Lochnagar,Lochnagar circuit,19.0,6.0,7.0,930.0,NO309851,['Lochnagar'],56.9525,-3.1364,4.5,4,2,https://www.walkhighlands.co.uk//cairngorms/lochnagar.shtml,6.5,30.391491395793498,1
Lochnagar,White Mounth Munros,29.0,9.0,11.0,1228.0,NO309851,"[""Càrn a' Choire Bhòidheach"", 'Lochnagar', 'Cairn Bannoch', 'Broad Cairn', 'Càrn an t-Sagairt Mòr ']",56.9525,-3.1364,4.5,4,2,https://www.walkhighlands.co.uk//cairngorms/white-mounth.shtml,10.0,44.381453154875715,5
Luinne Bheinn,Luinne Bheinn and Meall Bhuidhe,27.0,11.0,13.0,1586.0,NG765002,"['Luinne Bheinn', 'Meall Buidhe']",57.0386,-5.6854,5.0,5,3,https://www.walkhighlands.co.uk//fortwilliam/luinne-bheinn.shtml,12.0,54.57409177820268,2
Lurg Mhòr,Bidein a' Choire Sheasgaich and Lurg Mhòr (Walkhighlands),38.0,16.0,19.0,1530.0,NG924387,"[""Bidein a' Choire Sheasgaich"", 'Lurg Mhor']",57.3915,-5.45534,4.0,4,3,https://www.walkhighlands.co.uk//torridon/bideinachoiresheasgaich.shtml,17.5,70.41826003824092,2
Maoile Lunndaidh,Maoile Lunndaidh (Walkhighlands),26.0,8.0,11.0,1005.0,NH039493,['Maoile Lunndaidh'],57.4914,-5.2722,3.5,4,4,https://www.walkhighlands.co.uk//torridon/maoilelunndaidh.shtml,9.5,40.269837476099426,1
Maol Chean,Maol Chean-dearg ascent,14.0,5.0,7.0,932.0,NG956451,['Maol Chean-Dearg'],57.4498,-5.40744,4.0,4,3,https://www.walkhighlands.co.uk//torridon/Maolcheandearg.shtml,6.0,28.914913957934992,1
Maol chinn,South Glen Shiel Ridge: 7 Munros (Walkhighlands),26.75,9.0,11.0,1818.0,NH079117,"['Creag nan Dàmh', 'Druim Shionnach', ""Creag a' Mhaim"", 'Aonach Air Chrith', 'Sgùrr an Lochain', 'Maol Chinn-dearg', 'Sgùrr an Doire Leathain']",57.156,-5.17815,4.5,4,2,https://www.walkhighlands.co.uk//kintail/Glenshielridge.shtml,10.0,51.29110898661568,7
Mayar,Mayar and Driesh,14.5,4.5,5.5,835.0,NO284760,"['Mayar', 'Driesh']",56.8704,-3.17584,4.0,3,3,https://www.walkhighlands.co.uk//angus/mayar-driesh.shtml,5.0,24.778919694072655,2
Meall Buidhe (Glen Lyon),Meall Buidhe (Walkhighlands),8.5,2.5,3.5,551.0,NN511463,['Meall Buidhe'],56.5858,-4.42486,3.5,3,3,https://www.walkhighlands.co.uk//perthshire/meall-buidhe.shtml,3.0,15.45291586998088,1
Meall Buidhe (Knoydart),Luinne Bheinn and Meall Bhuidhe,27.0,11.0,13.0,1586.0,NG765002,"['Luinne Bheinn', 'Meall Buidhe']",57.0386,-5.6854,5.0,5,3,https://www.walkhighlands.co.uk//fortwilliam/luinne-bheinn.shtml,12.0,54.57409177820268,2
Meall Chuaich,Meall Chuaich,14.0,4.0,5.0,614.0,NN654867,['Meall Chuaich'],56.9512,-4.2148,3.0,3,2,https://www.walkhighlands.co.uk//cairngorms/meall-chuaich.shtml,4.5,20.690726577437857,1
Meall Corranaich,Meall Corranaich and Meall a'Choire Lèith (Walkhighlands),9.5,5.0,6.0,740.0,NN593415,"['Meall Corranaich', ""Meall a' Choire Lèith""]",56.5453,-4.28936,3.0,4,4,https://www.walkhighlands.co.uk//perthshire/meall-corranaich.shtml,5.5,25.166347992351817,2
Meall Dearg (Aonach Eagach),Aonach Eagach (Walkhighlands),9.5,8.0,9.0,1100.0,NN174567,"['Sgòrr nam Fiannaidh', 'Meall Dearg']",56.6666,-4.9824,3.83333,5,3,https://www.walkhighlands.co.uk//fortwilliam/aonacheagach.shtml,8.5,38.382409177820264,2
Meall Dearg (Aonach Eagach),Meall Dearg from the north (Walkhighlands),8.5,5.0,6.0,905.0,NN142607,['Meall Dearg'],56.7016,-5.03586,3.5,4,4,https://www.walkhighlands.co.uk//fortwilliam/meall-dearg.shtml,5.5,27.098709369024856,1
Meall Garbh (Ben Lawers),Meall Greigh,16.5,7.0,8.0,1230.0,NN677395,"['Meall Garbh', 'Meall Greigh', 'An Stùc']",56.5295,-4.15186,4.0,4,3,https://www.walkhighlands.co.uk//perthshire/meall-garbh.shtml,7.5,36.904875717017205,3
Meall Garbh (Càrn Mairg),Càrn Gorm,19.5,7.0,8.0,1330.0,NN655478,"['Càrn Mairg', 'Creag Mhòr', 'Meall Garbh', 'Càrn Gorm']",56.6029,-4.192,4.0,4,2,https://www.walkhighlands.co.uk//perthshire/carn-mairg.shtml,7.5,38.07600382409178,4
Meall Ghaordaidh,Meall Ghaordaidh from Glen Lochay (Walkhighlands),9.5,4.0,6.0,895.0,NN526363,['Meall Ghaordaidh'],56.4961,-4.39556,3.5,3,3,https://www.walkhighlands.co.uk//perthshire/meall-ghaordaidh.shtml,5.0,25.4815965583174,1
Meall Glas,Meall Glas and Sgiath Chuil from Glen Dochart (Walkhighlands),15.5,7.0,9.0,1182.0,NN448275,"['Sgiath Chuil', 'Meall Glas']",56.4148,-4.5172,3.5,4,4,https://www.walkhighlands.co.uk//lochlomond/meall-glas.shtml,8.0,37.84273422562141,2
Meall Glas,Sgiath Chùil and Meall Glas from Glen Lochay (Walkhighlands),20.5,7.0,9.0,1250.0,NN476368,"['Meall Glas', 'Sgiath Chùil']",56.4991,-4.4759,3.5,4,3,https://www.walkhighlands.co.uk//perthshire/sgiath-chuil.shtml,8.0,38.63910133843212,2
Meall Gorm,Sgùrr Mòr and the eastern Fannichs (Walkhighlands),24.75,9.0,11.0,1435.0,NH278742,"['An Coileachan', 'Beinn Liath Mhòr Fannaich', 'Meall Gorm', 'Sgùrr Mòr ']",57.7248,-4.8943,2.95,4,4,https://www.walkhighlands.co.uk//ullapool/fannichs.shtml,10.0,46.80568833652008,4
Meall Greigh,Meall Greigh,16.5,7.0,8.0,1230.0,NN677395,"['Meall Garbh', 'Meall Greigh', 'An Stùc']",56.5295,-4.15186,4.0,4,3,https://www.walkhighlands.co.uk//perthshire/meall-garbh.shtml,7.5,36.904875717017205,3
Meall a' Bhùiridh,Creise and Meall a'Bhùiridh from the Ski centre (Walkhighlands),10.5,5.0,7.0,1093.0,NN266525,"['Creise', ""Meall a'Bhùiridh""]",56.6324,-4.8279,4.0,4,3,https://www.walkhighlands.co.uk//fortwilliam/creise.shtml,6.0,30.800430210325047,2
Meall a' Choire Lèith,Meall Corranaich and Meall a'Choire Lèith (Walkhighlands),9.5,5.0,6.0,740.0,NN593415,"['Meall Corranaich', ""Meall a' Choire Lèith""]",56.5453,-4.28936,3.0,4,4,https://www.walkhighlands.co.uk//perthshire/meall-corranaich.shtml,5.5,25.166347992351817,2
Meall a' Chrasgaidh,Sgùrr nan Clach Geala,18.0,7.0,9.0,1153.0,NH163761,"['Sgùrr nan Each', 'Sgùrr nan Clach Geala', ""Meall a' Chrasgaidh""]",57.7373,-5.09,3.85714,4,4,https://www.walkhighlands.co.uk//ullapool/sgurrnanclachgeala.shtml,8.0,37.50310707456979,3
Meall na Teanga,Loch Lochy Munros from Kilfinnan (Walkhighlands),19.0,7.0,9.0,1258.0,NN278958,"['Meall na Teanga', ""Sròn a' Choire Ghaibh""]",57.0213,-4.83917,3.25,4,2,https://www.walkhighlands.co.uk//fortwilliam/lochlochymunros.shtml,8.0,38.73279158699809,2
Meall nan Ceapraichean,Beinn Dearg - the Four Munros circuit (Walkhighlands),27.0,9.0,11.0,1569.0,NH181852,"['Cona Mheall', 'Meall nan Ceapraichean', 'Eididh nan Clach Geala', 'Beinn Dearg']",57.8198,-5.0625,3.23256,4,2,https://www.walkhighlands.co.uk//ullapool/beinndearg.shtml,10.0,48.375,4
Meall nan Eun,Stob Coir'an Albannaich and Meall nan Eun (Walkhighlands),18.0,7.0,9.0,1327.0,NN136468,"['Meall nan Eun', ""Stob Coir' an Albannaich""]",56.5762,-5.03566,2.63158,4,4,https://www.walkhighlands.co.uk//fortwilliam/stobcoiranalbannaich.shtml,8.0,39.54086998087954,2
Meall nan Tarmachan,The Tarmachan Ridge (Walkhighlands),13.0,5.0,7.0,783.0,NN608377,['Meall nan Tarmachan'],56.5108,-4.2628,4.5,4,3,https://www.walkhighlands.co.uk//perthshire/meall-nan-tarmachan.shtml,6.0,27.169933078393882,1
Monadh Mòr,Beinn Bhrotain and Monadh Mòr,29.0,9.0,11.0,1505.0,NN850985,"['Monadh Mòr ', 'Beinn Bhrotain']",57.0631,-3.897,3.5,4,3,https://www.walkhighlands.co.uk//cairngorms/beinn-bhrotain.shtml,10.0,47.625478011472275,2
Moruisg,Moruisg and Sgùrr nan Ceannaichean (Walkhighlands),12.0,6.0,7.0,978.0,NH080520,"['Corbett', ' ', 'Sgùrr nan Ceannaichean', 'Moruisg']",57.5176,-5.20773,3.5,4,4,https://www.walkhighlands.co.uk//torridon/Moruisg.shtml,6.5,30.953632887189293,4
Mount Keen,Mount Keen from Glen Esk (Walkhighlands),17.5,5.0,6.0,681.0,NO446803,['Mount Keen'],56.9115,-2.91052,3.5,3,2,https://www.walkhighlands.co.uk//angus/mount-keen.shtml,5.5,24.47538240917782,1
Mount Keen,Mount Keen from Glen Esk (Walkhighlands),17.5,5.0,6.0,681.0,NO446803,['Mount Keen'],56.9115,-2.91052,3.5,3,2,https://www.walkhighlands.co.uk//cairngorms/mount-keen.shtml,5.5,24.47538240917782,1
Mullach Clach a' Bhlàir,Mullach Clach a' Bhlàir (Walkhighlands),21.75,6.5,7.5,870.0,NN850985,"[""Mullach Clach a' Bhlàir""]",57.0631,-3.897,3.5,4,2,https://www.walkhighlands.co.uk//cairngorms/mullach-clach-a-bhlair.shtml,7.0,31.188814531548758,1
Mullach Coire Mhic Fhearchair,Fisherfield 6,29.0,12.0,18.0,2254.0,NH065809,"[""A' Mhaighdean"", ""Beinn a' Chlaidheimh"", 'Mullach Coire Mhic Fhearchair', 'Beinn Tarsuinn', 'Corbett', 'Sgùrr Ban', 'Ruadh Stac Mòr ']",57.7768,-5.2545,4.5,5,4,https://www.walkhighlands.co.uk//ullapool/fisherfield-6.shtml,15.0,71.3972275334608,7
Mullach Fraoch,A' Chralaig and Mullach Fraoch-choire (Walkhighlands),13.0,6.0,8.0,1150.0,NH092121,"['A Chralaig', 'Mullach Fraoch-choire']",57.1596,-5.1647,4.0,4,3,https://www.walkhighlands.co.uk//kintail/Achralaig.shtml,7.0,34.46797323135755,2
Mullach an Rathain (Liathach),Liathach,11.5,8.0,10.0,1326.0,NG935566,"[""Spidean a' Choire Lèith"", 'Mullach an Rathain']",57.5527,-5.4516,5.0,5,2,https://www.walkhighlands.co.uk//torridon/Liathach.shtml,9.0,42.5291586998088,2
Mullach na Dheiragain,Sgùrr nan Ceathreamhnan group,20.0,9.0,11.0,1484.0,NH079202,"['Mullach nan Dheiragain', 'Sgùrr nan Ceathreamhnan', 'An Socach']",57.2322,-5.1834,4.0,4,2,https://www.walkhighlands.co.uk//lochness/Ceathreamhnan.shtml,10.0,47.379541108986615,3
Mullach nan Coirean,Stob Ban (Mamores) and Mullach nan Coirean (Walkhighlands),13.0,6.0,8.0,1155.0,NN145683,"['Mullach nan Coirean', 'Stob Ban']",56.7695,-5.0372,4.5,4,3,https://www.walkhighlands.co.uk//fortwilliam/stobban.shtml,7.0,34.52652963671128,2
Màm Sodhail,Càrn Eige and Mam Sodhail (Walkhighlands),28.0,10.0,13.0,1727.0,NH216242,"['Beinn Fhionnlaidh', 'Càrn Eige (or Càrn Eighe)', 'Mam Sodhail']",57.2734,-4.9618,4.0,4,3,https://www.walkhighlands.co.uk//lochness/carn-eige.shtml,11.5,54.725382409177826,3
Na Gruagaichean,Binnein Mòr and Na Gruagaichean,14.0,7.0,9.0,1336.0,NN187622,"['Binnein Mòr ', 'Na Gruagaichean']",56.7169,-4.96308,3.92308,4,2,https://www.walkhighlands.co.uk//fortwilliam/binneinmor.shtml,8.0,39.64627151051625,2
Ruadh,Beinn Eighe (western summits) (Walkhighlands),18.0,7.0,9.0,1116.0,NG958569,"['Spidean Coire nan Clach', 'Ruadh-Stac Mòr ']",57.5556,-5.4137,5.0,4,2,https://www.walkhighlands.co.uk//torridon/Beinneighe.shtml,8.0,37.0697896749522,2
Ruadh Stac Mòr,Fisherfield 6,29.0,12.0,18.0,2254.0,NH065809,"[""A' Mhaighdean"", ""Beinn a' Chlaidheimh"", 'Mullach Coire Mhic Fhearchair', 'Beinn Tarsuinn', 'Corbett', 'Sgùrr Ban', 'Ruadh Stac Mòr ']",57.7768,-5.2545,4.5,5,4,https://www.walkhighlands.co.uk//ullapool/fisherfield-6.shtml,15.0,71.3972275334608,7
Schiehallion,Schiehallion (Walkhighlands),10.0,4.0,6.0,731.0,NN753556,['Schiehallion'],56.6758,-4.03603,4.0,3,1,https://www.walkhighlands.co.uk//perthshire/schiehallion.shtml,5.0,23.560946462715105,1
Seana Bhràigh,Seana Bhràigh (Walkhighlands),27.0,9.0,10.0,1095.0,NH181852,['Seana Bhràigh'],57.8203,-5.0626,4.0,4,3,https://www.walkhighlands.co.uk//ullapool/seana-bhraigh.shtml,9.5,41.32385277246654,1
Sgiath Chùil,Sgiath Chùil and Meall Glas from Glen Lochay (Walkhighlands),20.5,7.0,9.0,1250.0,NN476368,"['Meall Glas', 'Sgiath Chùil']",56.4991,-4.4759,3.5,4,3,https://www.walkhighlands.co.uk//perthshire/sgiath-chuil.shtml,8.0,38.63910133843212,2
Sgiath Chùil,Meall Glas and Sgiath Chuil from Glen Dochart (Walkhighlands),15.5,7.0,9.0,1182.0,NN448275,"['Sgiath Chuil', 'Meall Glas']",56.4148,-4.5172,3.5,4,4,https://www.walkhighlands.co.uk//lochlomond/meall-glas.shtml,8.0,37.84273422562141,2
Sgàirneach Mhòr,Beinn Udlamain and Sgàirneach Mhòr (Walkhighlands),15.75,6.0,7.0,783.0,NN632755,"['Beinn Udlamain', 'Sgàirneach Mhòr']",56.8515,-4.2444,3.0,4,3,https://www.walkhighlands.co.uk//cairngorms/beinn-udlamain.shtml,6.5,28.669933078393882,2
Sgòr Gaibhre,Sgòr Gaibhre and Càrn Dearg from Corrour (Walkhighlands),21.75,7.0,8.0,973.0,NN356664,"['Sgòr Gaibhre', 'Càrn Dearg (Corrour)']",56.7604,-4.6907,4.0,4,3,https://www.walkhighlands.co.uk//fortwilliam/sgor-gaibhre.shtml,7.5,33.89507648183557,2
Sgòr Gaoith,Sgòr Gaoith,14.0,6.0,7.0,913.0,NH852012,['Sgòr Gaoith'],57.0879,-3.8951,5.0,4,2,https://www.walkhighlands.co.uk//cairngorms/sgor-gaoith.shtml,6.5,30.192399617590823,1
Sgòr an Lochain Uaine,Cairn Toul - Braeriach traverse (Walkhighlands),36.0,13.0,16.0,1820.0,NH984073,"[""The Devil's Point"", 'Braeriach', 'Cairn Toul', 'Sgòr an Lochain Uaine']",57.1462,-3.6793,5.0,5,3,https://www.walkhighlands.co.uk//cairngorms/cairn-toul.shtml,14.5,64.81453154875717,4
Sgòr na h,Sgòr na h-Ulaidh and Meall Lighiche (Walkhighlands),16.0,7.0,9.0,1292.0,NN120563,"['Corbett', 'Sgòr na h-Ulaidh', 'Meall Lighiche']",56.6611,-5.06878,3.52632,4,3,https://www.walkhighlands.co.uk//fortwilliam/sgornaulaidh.shtml,8.0,39.13097514340344,3
Sgòrr Dhearg (Beinn a' Bheithir),Beinn a' Bheithir via Schoolhouse Ridge (Walkhighlands),15.5,7.0,9.0,1387.0,NN084584,"['Sgòrr Dhònuill', 'Sgòrr Dhearg']",56.6783,-5.12981,3.69811,4,3,https://www.walkhighlands.co.uk//fortwilliam/beinnabheithir.shtml,8.0,40.243546845124285,2
Sgòrr Dhònuill (Beinn a' Bheithir),Beinn a' Bheithir via Schoolhouse Ridge (Walkhighlands),15.5,7.0,9.0,1387.0,NN084584,"['Sgòrr Dhònuill', 'Sgòrr Dhearg']",56.6783,-5.12981,3.69811,4,3,https://www.walkhighlands.co.uk//fortwilliam/beinnabheithir.shtml,8.0,40.243546845124285,2
Sgòrr Ruadh,Sgòrr Ruadh,16.0,6.5,7.0,931.0,NH004483,['Sgòrr Ruadh'],57.4818,-5.3292,4.0,4,2,https://www.walkhighlands.co.uk//torridon/Sgorrruadh.shtml,6.75,31.153202676864247,1
Sgòrr nam Fiannaidh (Aonach Eagach),Aonach Eagach (Walkhighlands),9.5,8.0,9.0,1100.0,NN174567,"['Sgòrr nam Fiannaidh', 'Meall Dearg']",56.6666,-4.9824,3.83333,5,3,https://www.walkhighlands.co.uk//fortwilliam/aonacheagach.shtml,8.5,38.382409177820264,2
Sgùrr Alasdair,Sgùrr Alasdair (Walkhighlands),9.5,5.0,6.0,992.0,NG408206,['Sgùrr Alasdair'],57.203,-6.2914,4.0,5,2,https://www.walkhighlands.co.uk//skye/sgurralasdair.shtml,5.5,28.117590822179732,1
Sgùrr Breac,Sgùrr Breac & A' Chailleach: Western Fannichs (Walkhighlands),16.0,6.0,8.0,1127.0,NH163761,"['Sgùrr Breac', ""A' Chailleach""]",57.7374,-5.09,3.53333,4,4,https://www.walkhighlands.co.uk//ullapool/sgurrbreac.shtml,7.0,34.1986137667304,2
Sgùrr Bàn,Fisherfield 6,29.0,12.0,18.0,2254.0,NH065809,"[""A' Mhaighdean"", ""Beinn a' Chlaidheimh"", 'Mullach Coire Mhic Fhearchair', 'Beinn Tarsuinn', 'Corbett', 'Sgùrr Ban', 'Ruadh Stac Mòr ']",57.7768,-5.2545,4.5,5,4,https://www.walkhighlands.co.uk//ullapool/fisherfield-6.shtml,15.0,71.3972275334608,7
Sgùrr Chòinnich,Sgùrr Chòinnich and Sgùrr a'Chaorachain (Walkhighlands),20.5,7.0,8.0,1251.0,NH039493,"['Sgùrr Chòinnich', ""Sgùrr a' Chaorachain""]",57.4913,-5.27236,4.0,4,3,https://www.walkhighlands.co.uk//torridon/Sgurrchoinnich.shtml,7.5,37.15081261950287,2
Sgùrr Chòinnich Mòr,The Grey Corries (Walkhighlands),21.5,9.0,10.0,1544.0,NN252793,"['Stob Choire Claurigh', 'Sgùrr Chòinnich Mòr ', 'Stob Coire an Laoigh']",56.8727,-4.8682,4.5,4,3,https://www.walkhighlands.co.uk//fortwilliam/greycorries.shtml,9.5,46.58221797323136,3
Sgùrr Dubh Mòr,Southern Cuillin and Coire Ghrunnda (Walkhighlands),15.0,7.0,11.0,1159.0,NG408206,"['Sgùrr Dubh Mòr ', 'Sgùrr nan Eag']",57.203,-6.2914,4.5,5,2,https://www.walkhighlands.co.uk//skye/sgurrnaneag.shtml,9.0,40.57337476099426,2
Sgùrr Fhuar,Glen Strathfarrar Munros circuit (Walkhighlands),25.0,7.0,10.0,1567.0,NH283386,"['Càrn nan Gobhar', 'Sgùrr Fhuar-thuill', 'Sgùrr na Ruaidhe', ""Sgùrr a' Choire Ghlais""]",57.4056,-4.8591,4.0,4,3,https://www.walkhighlands.co.uk//lochness/strathfarrar-munros.shtml,8.5,43.85157743785851,4
Sgùrr Fhuaran,Five Sisters of Kintail (Walkhighlands),15.0,8.0,10.0,1385.0,NH009135,"['Sgùrr na Ciste Duibhe', 'Sgùrr Fhuaran', 'Sgùrr na Càrnach']",57.1694,-5.2945,4.5,4,2,https://www.walkhighlands.co.uk//kintail/Fivesisters.shtml,9.0,43.220124282982795,3
Sgùrr Fiona (An Teallach),An Teallach,20.0,9.0,10.0,1415.0,NH093879,"['Sgùrr Fiona', 'Bidein a Ghlas Thuill']",57.84,-5.215,4.01429,5,3,https://www.walkhighlands.co.uk//ullapool/anteallach.shtml,9.5,45.07146271510516,2
Sgùrr Mhic Chòinnich,Sgùrr Mhic Chòinnich (Walkhighlands),11.0,5.0,6.0,950.0,NG408206,['Sgùrr Mhic Chòinich'],57.203,-6.2914,4.0,5,1,https://www.walkhighlands.co.uk//skye/sgurr-mhic-choinnich.shtml,5.5,27.625717017208412,1
Sgùrr Mòr,Sgùrr Mòr and the eastern Fannichs (Walkhighlands),24.75,9.0,11.0,1435.0,NH278742,"['An Coileachan', 'Beinn Liath Mhòr Fannaich', 'Meall Gorm', 'Sgùrr Mòr ']",57.7248,-4.8943,2.95,4,4,https://www.walkhighlands.co.uk//ullapool/fannichs.shtml,10.0,46.80568833652008,4
Sgùrr Mòr (Beinn Alligin),Beinn Alligin (Walkhighlands),10.5,7.0,8.0,1190.0,NG868576,"['Tom na Gruagaich', 'Sgùrr Mòr ']",57.5589,-5.56391,5.0,5,3,https://www.walkhighlands.co.uk//torridon/Beinnalligin.shtml,7.5,36.436424474187376,2
Sgùrr Mòr (Loch Quoich),Sgùrr Mòr and Sgùrr an Fhuarain,24.0,9.0,11.0,1510.0,NM987916,"['Corbett', 'Sgùrr an Fhuarain', 'Sgùrr Mòr ']",56.9719,-5.3123,3.75,4,4,https://www.walkhighlands.co.uk//fortwilliam/sgurr-mor.shtml,10.0,47.68403441682601,3
Sgùrr Thuilm,Sgùrr Thuilm and Sgùrr nan Coireachan (Walkhighlands),23.5,9.0,12.0,1428.0,NM 906 807,"['Sgùrr Thuilm', 'Sgùrr nan Coireachan']",56.8711,-5.4364,3.66667,4,3,https://www.walkhighlands.co.uk//fortwilliam/sgurrthuilm.shtml,10.5,48.22370936902486,2
Sgùrr a' Bhealaich Dheirg,Brothers Ridge - Sgùrr a Bhealaich Dheirg (Walkhighlands),10.0,6.0,8.0,1274.0,NH009135,"['Sàileag', 'Aonach Meadhoin', 'Sgùrr a Bhealaich Dheirg']",57.1696,-5.2945,4.0,4,2,https://www.walkhighlands.co.uk//kintail/Brothersridge.shtml,7.0,35.920172084130016,3
Sgùrr a' Chaorachain,Sgùrr Chòinnich and Sgùrr a'Chaorachain (Walkhighlands),20.5,7.0,8.0,1251.0,NH039493,"['Sgùrr Chòinnich', ""Sgùrr a' Chaorachain""]",57.4913,-5.27236,4.0,4,3,https://www.walkhighlands.co.uk//torridon/Sgurrchoinnich.shtml,7.5,37.15081261950287,2
Sgùrr a' Choire Ghlais,Glen Strathfarrar Munros circuit (Walkhighlands),25.0,7.0,10.0,1567.0,NH283386,"['Càrn nan Gobhar', 'Sgùrr Fhuar-thuill', 'Sgùrr na Ruaidhe', ""Sgùrr a' Choire Ghlais""]",57.4056,-4.8591,4.0,4,3,https://www.walkhighlands.co.uk//lochness/strathfarrar-munros.shtml,8.5,43.85157743785851,4
Sgùrr a' Ghreadaidh,Sgùrr a Mhadaidh and Sgùrr a Ghreadaidh (Walkhighlands),9.5,6.0,8.0,997.0,NG409225,"[""Sgùrr a' Ghreadaidh"", ""Sgùrr a' Mhadaidh""]",57.2198,-6.2929,4.0,5,3,https://www.walkhighlands.co.uk//skye/sgurraghreadaidh.shtml,7.0,32.67614722753346,2
Sgùrr a' Mhadaidh,Sgùrr a Mhadaidh and Sgùrr a Ghreadaidh (Walkhighlands),9.5,6.0,8.0,997.0,NG409225,"[""Sgùrr a' Ghreadaidh"", ""Sgùrr a' Mhadaidh""]",57.2198,-6.2929,4.0,5,3,https://www.walkhighlands.co.uk//skye/sgurraghreadaidh.shtml,7.0,32.67614722753346,2
Sgùrr a' Mhaoraich,Sgùrr a' Mhaoraich,14.0,5.0,7.0,1077.0,NH014040,['Sgùrr a Mhaoraich'],57.0848,-5.2781,3.5,4,3,https://www.walkhighlands.co.uk//fortwilliam/sgurramhaoraich.shtml,6.0,30.613049713193114,1
Sgùrr a' Mhàim,The Ring of Steall,16.0,9.0,12.0,1676.0,NN168691,"['An Gearanach', ""Stob Coire a' Chàirn"", 'Am Bodach', ""Sgùrr a'Mhaim""]",56.7777,-5.00034,5.0,5,2,https://www.walkhighlands.co.uk//fortwilliam/ringofsteall.shtml,10.5,51.12810707456979,4
Sgùrr an Doire Leathain,South Glen Shiel Ridge: 7 Munros (Walkhighlands),26.75,9.0,11.0,1818.0,NH079117,"['Creag nan Dàmh', 'Druim Shionnach', ""Creag a' Mhaim"", 'Aonach Air Chrith', 'Sgùrr an Lochain', 'Maol Chinn-dearg', 'Sgùrr an Doire Leathain']",57.156,-5.17815,4.5,4,2,https://www.walkhighlands.co.uk//kintail/Glenshielridge.shtml,10.0,51.29110898661568,7
Sgùrr an Lochain,South Glen Shiel Ridge: 7 Munros (Walkhighlands),26.75,9.0,11.0,1818.0,NH079117,"['Creag nan Dàmh', 'Druim Shionnach', ""Creag a' Mhaim"", 'Aonach Air Chrith', 'Sgùrr an Lochain', 'Maol Chinn-dearg', 'Sgùrr an Doire Leathain']",57.156,-5.17815,4.5,4,2,https://www.walkhighlands.co.uk//kintail/Glenshielridge.shtml,10.0,51.29110898661568,7
Sgùrr na Banachdich,Sgùrr na Banachdich (Walkhighlands),7.5,5.0,7.0,936.0,NG409225,['Sgùrr na Banachdich'],57.2198,-6.2929,4.0,4,2,https://www.walkhighlands.co.uk//skye/sgurrnabanachdich.shtml,6.0,28.961759082217974,1
Sgùrr na Ciste Duibhe,Five Sisters of Kintail (Walkhighlands),15.0,8.0,10.0,1385.0,NH009135,"['Sgùrr na Ciste Duibhe', 'Sgùrr Fhuaran', 'Sgùrr na Càrnach']",57.1694,-5.2945,4.5,4,2,https://www.walkhighlands.co.uk//kintail/Fivesisters.shtml,9.0,43.220124282982795,3
Sgùrr na Càrnach,Five Sisters of Kintail (Walkhighlands),15.0,8.0,10.0,1385.0,NH009135,"['Sgùrr na Ciste Duibhe', 'Sgùrr Fhuaran', 'Sgùrr na Càrnach']",57.1694,-5.2945,4.5,4,2,https://www.walkhighlands.co.uk//kintail/Fivesisters.shtml,9.0,43.220124282982795,3
Sgùrr na Cìche,Sgùrr na Cìche: 3 Munros from Loch Arkaig (Walkhighlands),26.0,10.0,12.0,1523.0,NM988916,"['Sgùrr nan Coireachan', 'Garbh Chioch Mhor', 'Sgùrr na Cìche']",56.9719,-5.3123,3.57895,4,4,https://www.walkhighlands.co.uk//fortwilliam/sgurrnaciche.shtml,11.0,50.8362810707457,3
Sgùrr na Lapaich,The Loch Mullardoch Munros (Walkhighlands),29.0,11.0,14.0,1826.0,NH218315,"['Sgùrr na Lapaich', 'Càrn nan Gobhar', 'An Riabhachan', 'An Socach']",57.3399,-4.9615,4.0,4,4,https://www.walkhighlands.co.uk//lochness/mullardoch-munros.shtml,12.5,58.884799235181646,4
Sgùrr na Ruaidhe,Glen Strathfarrar Munros circuit (Walkhighlands),25.0,7.0,10.0,1567.0,NH283386,"['Càrn nan Gobhar', 'Sgùrr Fhuar-thuill', 'Sgùrr na Ruaidhe', ""Sgùrr a' Choire Ghlais""]",57.4056,-4.8591,4.0,4,3,https://www.walkhighlands.co.uk//lochness/strathfarrar-munros.shtml,8.5,43.85157743785851,4
Sgùrr na Sgìne,The Saddle,13.0,7.0,9.0,1350.0,NG965146,"['The Saddle', 'Sgùrr na Sgìne']",57.1762,-5.36459,5.0,5,2,https://www.walkhighlands.co.uk//kintail/Thesaddle.shtml,8.0,39.81022944550669,2
Sgùrr nan Ceathreamhnan,Sgùrr nan Ceathreamhnan group,20.0,9.0,11.0,1484.0,NH079202,"['Mullach nan Dheiragain', 'Sgùrr nan Ceathreamhnan', 'An Socach']",57.2322,-5.1834,4.0,4,2,https://www.walkhighlands.co.uk//lochness/Ceathreamhnan.shtml,10.0,47.379541108986615,3
Sgùrr nan Clach Geala,Sgùrr nan Clach Geala,18.0,7.0,9.0,1153.0,NH163761,"['Sgùrr nan Each', 'Sgùrr nan Clach Geala', ""Meall a' Chrasgaidh""]",57.7373,-5.09,3.85714,4,4,https://www.walkhighlands.co.uk//ullapool/sgurrnanclachgeala.shtml,8.0,37.50310707456979,3
Sgùrr nan Coireachan (Glen Dessary),Sgùrr na Cìche: 3 Munros from Loch Arkaig (Walkhighlands),26.0,10.0,12.0,1523.0,NM988916,"['Sgùrr nan Coireachan', 'Garbh Chioch Mhor', 'Sgùrr na Cìche']",56.9719,-5.3123,3.57895,4,4,https://www.walkhighlands.co.uk//fortwilliam/sgurrnaciche.shtml,11.0,50.8362810707457,3
Sgùrr nan Coireachan (Glenfinnan),Sgùrr Thuilm and Sgùrr nan Coireachan (Walkhighlands),23.5,9.0,12.0,1428.0,NM 906 807,"['Sgùrr Thuilm', 'Sgùrr nan Coireachan']",56.8711,-5.4364,3.66667,4,3,https://www.walkhighlands.co.uk//fortwilliam/sgurrthuilm.shtml,10.5,48.22370936902486,2
Sgùrr nan Conbhairean,Sgùrr nan Conbhairean round (Walkhighlands),17.5,7.0,8.0,1260.0,NH144103,"['Càrn Ghluasaid', 'Sàil Chaorainn', 'Sgùrr nan Conbhairean']",57.1461,-5.0682,4.0,4,3,https://www.walkhighlands.co.uk//kintail/sgurrnanconbhairean.shtml,7.5,37.25621414913958,3
Sgùrr nan Each,Sgùrr nan Clach Geala,18.0,7.0,9.0,1153.0,NH163761,"['Sgùrr nan Each', 'Sgùrr nan Clach Geala', ""Meall a' Chrasgaidh""]",57.7373,-5.09,3.85714,4,4,https://www.walkhighlands.co.uk//ullapool/sgurrnanclachgeala.shtml,8.0,37.50310707456979,3
Sgùrr nan Eag,Southern Cuillin and Coire Ghrunnda (Walkhighlands),15.0,7.0,11.0,1159.0,NG408206,"['Sgùrr Dubh Mòr ', 'Sgùrr nan Eag']",57.203,-6.2914,4.5,5,2,https://www.walkhighlands.co.uk//skye/sgurrnaneag.shtml,9.0,40.57337476099426,2
Sgùrr nan Gillean,Sgùrr nan Gillean (Walkhighlands),12.0,5.0,7.0,985.0,NG484296,['Sgùrr nan Gillean'],57.2894,-6.176,5.0,5,2,https://www.walkhighlands.co.uk//skye/sgurrnangillean.shtml,6.0,29.53561185468451,1
Sgùrr Èilde Mòr,Sgùrr Èilde Mòr and Binnein Beag,20.0,9.0,11.0,1582.0,NN188623,"['Sgùrr Èilde Mòr ', 'Binnein Beag']",56.7168,-4.9628,3.71429,4,3,https://www.walkhighlands.co.uk//fortwilliam/sgurreildemor.shtml,10.0,48.52724665391969,2
Slioch,Slioch,19.0,8.0,9.0,1144.0,NH038624,['Slioch'],57.6085,-5.2866,4.0,4,2,https://www.walkhighlands.co.uk//torridon/Slioch.shtml,8.5,38.897705544933075,1
Spidean Coire nan Clach (Beinn Eighe),Beinn Eighe (western summits) (Walkhighlands),18.0,7.0,9.0,1116.0,NG958569,"['Spidean Coire nan Clach', 'Ruadh-Stac Mòr ']",57.5556,-5.4137,5.0,4,2,https://www.walkhighlands.co.uk//torridon/Beinneighe.shtml,8.0,37.0697896749522,2
Spidean Mialach,Gleouraich and Spidean Mialach (Walkhighlands),12.0,5.0,7.0,1130.0,NH029029,"['Gleouraich', 'Spidean Mialach']",57.0757,-5.2532,3.61905,4,3,https://www.walkhighlands.co.uk//fortwilliam/spideanmialach.shtml,6.0,31.23374760994264,2
Spidean a' Choire Lèith (Liathach),Liathach,11.5,8.0,10.0,1326.0,NG935566,"[""Spidean a' Choire Lèith"", 'Mullach an Rathain']",57.5527,-5.4516,5.0,5,2,https://www.walkhighlands.co.uk//torridon/Liathach.shtml,9.0,42.5291586998088,2
Sròn a' Choire Ghairbh,Loch Lochy Munros from Kilfinnan (Walkhighlands),19.0,7.0,9.0,1258.0,NN278958,"['Meall na Teanga', ""Sròn a' Choire Ghaibh""]",57.0213,-4.83917,3.25,4,2,https://www.walkhighlands.co.uk//fortwilliam/lochlochymunros.shtml,8.0,38.73279158699809,2
Stob Binnein,Ben More and Stob Binnein (Walkhighlands),12.0,6.0,8.0,1335.0,NN420263,"['Ben More', 'Stob Binnein']",56.4028,-4.5612,4.0,4,3,https://www.walkhighlands.co.uk//lochlomond/ben-more.shtml,7.0,36.63456022944551,2
Stob Bàn (Grey Corries),Stob Ban (Grey Corries) (Walkhighlands),18.0,6.0,7.0,852.0,NN255788,['Stob Ban (Grey Corries)'],56.8683,-4.8637,4.0,4,3,https://www.walkhighlands.co.uk//fortwilliam/stob-ban-grey-corries.shtml,6.5,29.478011472275334,1
Stob Bàn (Mamores),Stob Ban (Mamores) and Mullach nan Coirean (Walkhighlands),13.0,6.0,8.0,1155.0,NN145683,"['Mullach nan Coirean', 'Stob Ban']",56.7695,-5.0372,4.5,4,3,https://www.walkhighlands.co.uk//fortwilliam/stobban.shtml,7.0,34.52652963671128,2
Stob Choire Claurigh,The Grey Corries (Walkhighlands),21.5,9.0,10.0,1544.0,NN252793,"['Stob Choire Claurigh', 'Sgùrr Chòinnich Mòr ', 'Stob Coire an Laoigh']",56.8727,-4.8682,4.5,4,3,https://www.walkhighlands.co.uk//fortwilliam/greycorries.shtml,9.5,46.58221797323136,3
Stob Coir an Albannaich,Stob Coir'an Albannaich and Meall nan Eun (Walkhighlands),18.0,7.0,9.0,1327.0,NN136468,"['Meall nan Eun', ""Stob Coir' an Albannaich""]",56.5762,-5.03566,2.63158,4,4,https://www.walkhighlands.co.uk//fortwilliam/stobcoiranalbannaich.shtml,8.0,39.54086998087954,2
Stob Coire Easain,Stob Coire Easain and Stob a'Choire Mheadhoin (Walkhighlands),16.5,7.0,8.0,1172.0,NN349781,"[""Stob a'Choire Mheadhoin"", 'Stob Coire Easain']",56.8654,-4.7084,4.0,4,3,https://www.walkhighlands.co.uk//fortwilliam/easains.shtml,7.5,36.22562141491396,2
Stob Coire Raineach (Buachaille Etive Beag),Buachaille Etive Beag (Walkhighlands),8.0,5.0,6.0,900.0,NN187562,"['Stob Coire Raineach', 'Stob Dubh']",56.6627,-4.9582,3.83158,3,2,https://www.walkhighlands.co.uk//fortwilliam/buachailleetivebeag.shtml,5.5,27.040152963671126,2
Stob Coire Sgreamhach,Bidean nam Bian (Walkhighlands),11.0,7.0,9.0,1316.0,NN170569,"['Stob Coire Sgreamhach', 'Bidean nam Bian']",56.6677,-4.9865,3.90588,4,1,https://www.walkhighlands.co.uk//fortwilliam/bideannambian.shtml,8.0,39.412045889101336,2
Stob Coire Sgriodain,Chno Dearg and Stob Coire Sgriodain (Walkhighlands),13.5,6.0,7.0,915.0,NN350782,"['Chno Dearg', 'Stob Coire Sgriodain']",56.8655,-4.7085,4.0,4,4,https://www.walkhighlands.co.uk//fortwilliam/chnodearg.shtml,6.5,30.215822179732314,2
Stob Coire a' Chàirn,The Ring of Steall,16.0,9.0,12.0,1676.0,NN168691,"['An Gearanach', ""Stob Coire a' Chàirn"", 'Am Bodach', ""Sgùrr a'Mhaim""]",56.7777,-5.00034,5.0,5,2,https://www.walkhighlands.co.uk//fortwilliam/ringofsteall.shtml,10.5,51.12810707456979,4
Stob Coire an Laoigh,The Grey Corries (Walkhighlands),21.5,9.0,10.0,1544.0,NN252793,"['Stob Choire Claurigh', 'Sgùrr Chòinnich Mòr ', 'Stob Coire an Laoigh']",56.8727,-4.8682,4.5,4,3,https://www.walkhighlands.co.uk//fortwilliam/greycorries.shtml,9.5,46.58221797323136,3
Stob Daimh,Ben Cruachan and Stob Daimh (Walkhighlands),13.75,8.0,9.0,1376.0,NN080267,"['Ben Cruachan', 'Stob Daimh']",56.3937,-5.11198,4.5,4,2,https://www.walkhighlands.co.uk//argyll/ben-cruachan.shtml,8.5,41.61472275334608,2
Stob Dearg (Buachaille Etive Mòr),Buachaille Etive Mòr (Walkhighlands),13.0,7.0,9.0,1110.0,NN221563,"['Stob na Bròige', 'Stob Dearg']",56.6644,-4.9045,3.90909,4,2,https://www.walkhighlands.co.uk//fortwilliam/buachailleetivemor.shtml,8.0,36.999521988527725,2
Stob Dubh (Buachaille Etive Beag),Buachaille Etive Beag (Walkhighlands),8.0,5.0,6.0,900.0,NN187562,"['Stob Coire Raineach', 'Stob Dubh']",56.6627,-4.9582,3.83158,3,2,https://www.walkhighlands.co.uk//fortwilliam/buachailleetivebeag.shtml,5.5,27.040152963671126,2
Stob Ghabhar,Stob Ghabhar and Stob a'Choire Odhair (Walkhighlands),16.0,8.0,9.0,1239.0,NN270418,"['Stob Ghabhar', ""Stob a' Choire Odhair""]",56.5372,-4.81407,4.0,4,3,https://www.walkhighlands.co.uk//argyll/stob-ghabhar.shtml,8.5,40.01027724665392,2
Stob Poite Coire Àrdair,Creag Meagaidh circuit (Walkhighlands),21.0,8.0,10.0,1080.0,NN482872,"['Creag Meagaidh', 'Càrn Liath', 'Stob Poite Coire Àrdair']",56.9521,-4.49592,4.5,4,3,https://www.walkhighlands.co.uk//fortwilliam/creagmeagaidh.shtml,9.0,39.64818355640536,3
Stob a' Choire Mheadhoin,Stob Coire Easain and Stob a'Choire Mheadhoin (Walkhighlands),16.5,7.0,8.0,1172.0,NN349781,"[""Stob a'Choire Mheadhoin"", 'Stob Coire Easain']",56.8654,-4.7084,4.0,4,3,https://www.walkhighlands.co.uk//fortwilliam/easains.shtml,7.5,36.22562141491396,2
Stob a' Choire Odhair,Stob Ghabhar and Stob a'Choire Odhair (Walkhighlands),16.0,8.0,9.0,1239.0,NN270418,"['Stob Ghabhar', ""Stob a' Choire Odhair""]",56.5372,-4.81407,4.0,4,3,https://www.walkhighlands.co.uk//argyll/stob-ghabhar.shtml,8.5,40.01027724665392,2
Stob na Bròige  (Buachaille Etive Mòr),Buachaille Etive Mòr (Walkhighlands),13.0,7.0,9.0,1110.0,NN221563,"['Stob na Bròige', 'Stob Dearg']",56.6644,-4.9045,3.90909,4,2,https://www.walkhighlands.co.uk//fortwilliam/buachailleetivemor.shtml,8.0,36.999521988527725,2
Stùc a' Chròin,Beinn Each from Loch Lubnaig (Walkhighlands),7.0,3.5,4.5,693.0,NN 582 137,"['Corbett', 'Beinn Each']",56.2947,-4.29129,3.5,3,3,https://www.walkhighlands.co.uk//lochlomond/beinn-each.shtml,4.0,20.11591778202677,2
Stùc a' Chròin,Ben Vorlich and Stùc a' Chròin (Walkhighlands),14.5,6.0,7.0,1145.0,NN633232,"['Ben Vorlich', ""Stùc a'Chròin""]",56.3813,-4.2158,4.0,4,3,https://www.walkhighlands.co.uk//perthshire/ben-vorlich.shtml,6.5,32.90941682600382,2
Stùcd an Lochain,Stuchd an Lochain (Walkhighlands),8.5,3.5,4.5,726.0,NN511463,['Stuchd an Lochain'],56.5856,-4.42609,4.0,4,3,https://www.walkhighlands.co.uk//perthshire/stuchd-an-lochain.shtml,4.0,20.502390057361374,1
Sàil Chaorainn,Sgùrr nan Conbhairean round (Walkhighlands),17.5,7.0,8.0,1260.0,NH144103,"['Càrn Ghluasaid', 'Sàil Chaorainn', 'Sgùrr nan Conbhairean']",57.1461,-5.0682,4.0,4,3,https://www.walkhighlands.co.uk//kintail/sgurrnanconbhairean.shtml,7.5,37.25621414913958,3
Sàileag,Brothers Ridge - Sgùrr a Bhealaich Dheirg (Walkhighlands),10.0,6.0,8.0,1274.0,NH009135,"['Sàileag', 'Aonach Meadhoin', 'Sgùrr a Bhealaich Dheirg']",57.1696,-5.2945,4.0,4,2,https://www.walkhighlands.co.uk//kintail/Brothersridge.shtml,7.0,35.920172084130016,3
The Cairnwell,The Cairnwell Munros (Walkhighlands),13.0,5.0,6.0,595.0,NO138781,"['Càrn Aosda', ""Càrn a' Ghèoidh"", 'The Cairnwell']",56.8868,-3.4149,3.0,3,3,https://www.walkhighlands.co.uk//cairngorms/cairnwell.shtml,5.5,23.468212237093688,3
The Devil's Point,Cairn Toul - Braeriach traverse (Walkhighlands),36.0,13.0,16.0,1820.0,NH984073,"[""The Devil's Point"", 'Braeriach', 'Cairn Toul', 'Sgòr an Lochain Uaine']",57.1462,-3.6793,5.0,5,3,https://www.walkhighlands.co.uk//cairngorms/cairn-toul.shtml,14.5,64.81453154875717,4
The Saddle,The Saddle,13.0,7.0,9.0,1350.0,NG965146,"['The Saddle', 'Sgùrr na Sgìne']",57.1762,-5.36459,5.0,5,2,https://www.walkhighlands.co.uk//kintail/Thesaddle.shtml,8.0,39.81022944550669,2
Toll Creagach,Tom a' Chòinich & Toll Creagach,16.5,6.0,8.0,1096.0,NH217242,"[""Tom a' Chòinich"", 'Toll Creagach']",57.2744,-4.9587,4.0,4,3,https://www.walkhighlands.co.uk//lochness/Tollcreagach.shtml,7.0,33.83556405353728,2
Tolmount,Tolmount and Tom Buidhe via Loch Callater (Walkhighlands),26.5,8.0,10.0,841.0,NO155881,"['Tolmount', 'Tom Buidhe']",56.9774,-3.39,3.0,4,3,https://www.walkhighlands.co.uk//cairngorms/tolmount.shtml,9.0,36.849187380497135,2
Tom Buidhe,Tolmount and Tom Buidhe via Loch Callater (Walkhighlands),26.5,8.0,10.0,841.0,NO155881,"['Tolmount', 'Tom Buidhe']",56.9774,-3.39,3.0,4,3,https://www.walkhighlands.co.uk//cairngorms/tolmount.shtml,9.0,36.849187380497135,2
Tom a' Chòinich,Tom a' Chòinich & Toll Creagach,16.5,6.0,8.0,1096.0,NH217242,"[""Tom a' Chòinich"", 'Toll Creagach']",57.2744,-4.9587,4.0,4,3,https://www.walkhighlands.co.uk//lochness/Tollcreagach.shtml,7.0,33.83556405353728,2
Tom na Gruagaich (Beinn Alligin),Beinn Alligin (Walkhighlands),10.5,7.0,8.0,1190.0,NG868576,"['Tom na Gruagaich', 'Sgùrr Mòr ']",57.5589,-5.56391,5.0,5,3,https://www.walkhighlands.co.uk//torridon/Beinnalligin.shtml,7.5,36.436424474187376,2
